{"type":"FeatureCollection","features":[{"type":"Feature","properties":{"data_versao":"2024-09-29","id_parada":"3079O00021C0","nome_parada":"Ada"},"geometry":{"type":"Point","coordinates":[-43.313756,-22.880098]}},{"type":"Feature","properties":{"data_versao":"2024-09-29","id_parada":"3109O00013C0","nome_parada":"Apa"},"geometry":{"type":"Point","coordinates":[-43.39002,-22.83662]}},{"type":"Feature","properties":{"data_versao":"2024-09-29","id_parada":"2028O00032C0","nome_parada":"ABBR"},"geometry":{"type":"Point","coordinates":[-43.217762,-22.964402]}},{"type":"Feature","properties":{"data_versao":"2024-09-29","id_parada":"2027O00098C0","nome_parada":"ABBR"},"geometry":{"type":"Point","coordinates":[-43.217649,-22.964565]}},{"type":"Feature","properties":{"data_versao":"2024-09-29","id_parada":"5144O00104C0","nome_parada":"Abio"},"geometry":{"type":"Point","coordinates":[-43.58038,-22.89624]}},{"type":"Feature","properties":{"data_versao":"2024-09-29","id_parada":"3089O00061C0","nome_parada":"Alda"},"geometry":{"type":"Point","coordinates":[-43.361568,-22.866636]}},{"type":"Feature","properties":{"data_versao":"2024-09-29","id_parada":"3044O00003C2","nome_parada":"Alho"},"geometry":{"type":"Point","coordinates":[-43.28304,-22.81992]}},{"type":"Feature","properties":{"data_versao":"2024-09-29","id_parada":"5139O00027C9","nome_parada":"Açu"},"geometry":{"type":"Point","coordinates":[-43.441722,-22.897642]}},{"type":"Feature","properties":{"data_versao":"2024-09-29","id_parada":"5139O00208C9","nome_parada":"Açu"},"geometry":{"type":"Point","coordinates":[-43.44177,-22.897703]}},{"type":"Feature","properties":{"data_versao":"2024-09-29","id_parada":"1004O00006C0","nome_parada":"Bela"},"geometry":{"type":"Point","coordinates":[-43.22908,-22.88546]}},{"type":"Feature","properties":{"data_versao":"2024-09-29","id_parada":"1158O00001C0","nome_parada":"Bela"},"geometry":{"type":"Point","coordinates":[-43.228785,-22.885926]}},{"type":"Feature","properties":{"data_versao":"2024-09-29","id_parada":"5139O00188C9","nome_parada":"Bora"},"geometry":{"type":"Point","coordinates":[-43.409845,-22.886281]}},{"type":"Feature","properties":{"data_versao":"2024-09-29","id_parada":"5151BO0005E0","nome_parada":"CTEx"},"geometry":{"type":"Point","coordinates":[-43.55844,-23.00523]}},{"type":"Feature","properties":{"data_versao":"2024-09-29","id_parada":"3044O00071C0","nome_parada":"Cuba"},"geometry":{"type":"Point","coordinates":[-43.278588,-22.827968]}},{"type":"Feature","properties":{"data_versao":"2024-09-29","id_parada":"2154O00007C0","nome_parada":"Dois"},"geometry":{"type":"Point","coordinates":[-43.24509,-22.98784]}},{"type":"Feature","properties":{"data_versao":"2024-09-29","id_parada":"5150O00090C9","nome_parada":"Dois"},"geometry":{"type":"Point","coordinates":[-43.68667,-22.95523]}},{"type":"Feature","properties":{"data_versao":"2024-09-29","id_parada":"2154O00020C0","nome_parada":"Dois"},"geometry":{"type":"Point","coordinates":[-43.245296,-22.987593]}},{"type":"Feature","properties":{"data_versao":"2024-09-29","id_parada":"5150O00034C9","nome_parada":"Dois"},"geometry":{"type":"Point","coordinates":[-43.68684,-22.95518]}},{"type":"Feature","properties":{"data_versao":"2024-09-29","id_parada":"5143O00007C9","nome_parada":"EBSE"},"geometry":{"type":"Point","coordinates":[-43.518671,-22.884829]}},{"type":"Feature","properties":{"data_versao":"2024-09-29","id_parada":"3097O00018C0","nome_parada":"EISA"},"geometry":{"type":"Point","coordinates":[-43.18833,-22.788]}},{"type":"Feature","properties":{"data_versao":"2024-09-29","id_parada":"3097O00010C9","nome_parada":"EISA"},"geometry":{"type":"Point","coordinates":[-43.18733,-22.786449]}},{"type":"Feature","properties":{"data_versao":"2024-09-29","id_parada":"5151O00173C0","nome_parada":"Fita"},"geometry":{"type":"Point","coordinates":[-43.650143,-22.958496]}},{"type":"Feature","properties":{"data_versao":"2024-09-29","id_parada":"3106O00016C0","nome_parada":"Gama"},"geometry":{"type":"Point","coordinates":[-43.377,-22.83124]}},{"type":"Feature","properties":{"data_versao":"2024-09-29","id_parada":"5149O00299C9","nome_parada":"Gude"},"geometry":{"type":"Point","coordinates":[-43.666037,-22.916571]}},{"type":"Feature","properties":{"data_versao":"2024-09-29","id_parada":"3101O00012C0","nome_parada":"Haia"},"geometry":{"type":"Point","coordinates":[-43.19466,-22.79813]}},{"type":"Feature","properties":{"data_versao":"2024-09-29","id_parada":"3047O00013C0","nome_parada":"IBGE"},"geometry":{"type":"Point","coordinates":[-43.30707,-22.81771]}},{"type":"Feature","properties":{"data_versao":"2024-09-29","id_parada":"1010BB0116E9","nome_parada":"INTO"},"geometry":{"type":"Point","coordinates":[-43.215253,-22.89457]}},{"type":"Feature","properties":{"data_versao":"2024-09-29","id_parada":"1010O00021C0","nome_parada":"INTO"},"geometry":{"type":"Point","coordinates":[-43.21542,-22.89479]}},{"type":"Feature","properties":{"data_versao":"2024-09-29","id_parada":"3077O00009C0","nome_parada":"Iara"},"geometry":{"type":"Point","coordinates":[-43.3399,-22.83734]}},{"type":"Feature","properties":{"data_versao":"2024-09-29","id_parada":"3077O00029C0","nome_parada":"Iara"},"geometry":{"type":"Point","coordinates":[-43.33991,-22.8371]}},{"type":"Feature","properties":{"data_versao":"2024-09-29","id_parada":"5150O00044C9","nome_parada":"Iate"},"geometry":{"type":"Point","coordinates":[-43.70283,-22.98048]}},{"type":"Feature","properties":{"data_versao":"2024-09-29","id_parada":"5144O00188C0","nome_parada":"Jape"},"geometry":{"type":"Point","coordinates":[-43.56788,-22.888709]}},{"type":"Feature","properties":{"data_versao":"2024-09-29","id_parada":"3098O00002C0","nome_parada":"Jari"},"geometry":{"type":"Point","coordinates":[-43.17392,-22.79449]}},{"type":"Feature","properties":{"data_versao":"2024-09-29","id_parada":"3114O00041C0","nome_parada":"Juno"},"geometry":{"type":"Point","coordinates":[-43.36163,-22.81014]}},{"type":"Feature","properties":{"data_versao":"2024-09-29","id_parada":"4120O00054C0","nome_parada":"Leda"},"geometry":{"type":"Point","coordinates":[-43.35683,-22.94499]}},{"type":"Feature","properties":{"data_versao":"2024-09-29","id_parada":"4120O00041C0","nome_parada":"Leda"},"geometry":{"type":"Point","coordinates":[-43.356701,-22.944677]}},{"type":"Feature","properties":{"data_versao":"2024-09-29","id_parada":"5144O00064C9","nome_parada":"Mora"},"geometry":{"type":"Point","coordinates":[-43.54693,-22.90184]}},{"type":"Feature","properties":{"data_versao":"2024-09-29","id_parada":"5144O00177C9","nome_parada":"Mora"},"geometry":{"type":"Point","coordinates":[-43.5465,-22.90211]}},{"type":"Feature","properties":{"data_versao":"2024-09-29","id_parada":"5144O00575C9","nome_parada":"Mora"},"geometry":{"type":"Point","coordinates":[-43.547159,-22.910992]}},{"type":"Feature","properties":{"data_versao":"2024-09-29","id_parada":"5144O00113C9","nome_parada":"Mora"},"geometry":{"type":"Point","coordinates":[-43.54729,-22.91108]}},{"type":"Feature","properties":{"data_versao":"2024-09-29","id_parada":"3040O00030C0","nome_parada":"Olga"},"geometry":{"type":"Point","coordinates":[-43.254391,-22.869956]}},{"type":"Feature","properties":{"data_versao":"2024-09-29","id_parada":"3040O00016C0","nome_parada":"Olga"},"geometry":{"type":"Point","coordinates":[-43.25432,-22.86929]}},{"type":"Feature","properties":{"data_versao":"2024-09-29","id_parada":"5150O00098C0","nome_parada":"Olé"},"geometry":{"type":"Point","coordinates":[-43.68528,-22.98285]}},{"type":"Feature","properties":{"data_versao":"2024-09-29","id_parada":"5148O00028C9","nome_parada":"Onze"},"geometry":{"type":"Point","coordinates":[-43.63088,-22.91566]}},{"type":"Feature","properties":{"data_versao":"2024-09-29","id_parada":"5144O00590C9","nome_parada":"Pora"},"geometry":{"type":"Point","coordinates":[-43.560032,-22.92057]}},{"type":"Feature","properties":{"data_versao":"2024-09-29","id_parada":"5144O00594C9","nome_parada":"Pora"},"geometry":{"type":"Point","coordinates":[-43.560329,-22.918511]}},{"type":"Feature","properties":{"data_versao":"2024-09-29","id_parada":"5144O00494C9","nome_parada":"Pora"},"geometry":{"type":"Point","coordinates":[-43.55954,-22.918448]}},{"type":"Feature","properties":{"data_versao":"2024-09-29","id_parada":"5144O00114C9","nome_parada":"Pré"},"geometry":{"type":"Point","coordinates":[-43.54557,-22.91216]}},{"type":"Feature","properties":{"data_versao":"2024-09-29","id_parada":"3040O00034C0","nome_parada":"Roma"},"geometry":{"type":"Point","coordinates":[-43.24895,-22.86532]}},{"type":"Feature","properties":{"data_versao":"2024-09-29","id_parada":"5144O00010C9","nome_parada":"Rosa"},"geometry":{"type":"Point","coordinates":[-43.5702,-22.92512]}},{"type":"Feature","properties":{"data_versao":"2024-09-29","id_parada":"3101O00026C0","nome_parada":"Sena"},"geometry":{"type":"Point","coordinates":[-43.19244,-22.79763]}},{"type":"Feature","properties":{"data_versao":"2024-09-29","id_parada":"5140O00112C2","nome_parada":"Sika"},"geometry":{"type":"Point","coordinates":[-43.443985,-22.870423]}},{"type":"Feature","properties":{"data_versao":"2024-09-29","id_parada":"4122O00109C0","nome_parada":"Soca"},"geometry":{"type":"Point","coordinates":[-43.38555,-22.91887]}},{"type":"Feature","properties":{"data_versao":"2024-09-29","id_parada":"4122O00142C0","nome_parada":"Soca"},"geometry":{"type":"Point","coordinates":[-43.38509,-22.91705]}},{"type":"Feature","properties":{"data_versao":"2024-09-29","id_parada":"5141O00020C9","nome_parada":"Suez"},"geometry":{"type":"Point","coordinates":[-43.478922,-22.886245]}},{"type":"Feature","properties":{"data_versao":"2024-09-29","id_parada":"4132O00087C0","nome_parada":"Surf"},"geometry":{"type":"Point","coordinates":[-43.483192,-23.031516]}},{"type":"Feature","properties":{"data_versao":"2024-09-29","id_parada":"3089O00053C2","nome_parada":"Tupa"},"geometry":{"type":"Point","coordinates":[-43.366078,-22.870197]}},{"type":"Feature","properties":{"data_versao":"2024-09-29","id_parada":"5139O00218C9","nome_parada":"Tupy"},"geometry":{"type":"Point","coordinates":[-43.425877,-22.887778]}},{"type":"Feature","properties":{"data_versao":"2024-09-29","id_parada":"2035O00015C0","nome_parada":"UERJ"},"geometry":{"type":"Point","coordinates":[-43.23727,-22.9116]}},{"type":"Feature","properties":{"data_versao":"2024-09-29","id_parada":"5139O00199C9","nome_parada":"Unia"},"geometry":{"type":"Point","coordinates":[-43.437342,-22.895116]}},{"type":"Feature","properties":{"data_versao":"2024-09-29","id_parada":"5139O00180C9","nome_parada":"Unia"},"geometry":{"type":"Point","coordinates":[-43.437554,-22.89545]}},{"type":"Feature","properties":{"data_versao":"2024-09-29","id_parada":"3078O00029C0","nome_parada":"Vila"},"geometry":{"type":"Point","coordinates":[-43.346556,-22.88288]}},{"type":"Feature","properties":{"data_versao":"2024-09-29","id_parada":"3083O00038C0","nome_parada":"Vila"},"geometry":{"type":"Point","coordinates":[-43.34691,-22.88257]}},{"type":"Feature","properties":{"data_versao":"2024-09-29","id_parada":"3090O00110C0","nome_parada":"Acapu"},"geometry":{"type":"Point","coordinates":[-43.367205,-22.85606]}},{"type":"Feature","properties":{"data_versao":"2024-09-29","id_parada":"3090O00019C0","nome_parada":"Acapu"},"geometry":{"type":"Point","coordinates":[-43.36874,-22.85204]}},{"type":"Feature","properties":{"data_versao":"2024-09-29","id_parada":"3090O00063C0","nome_parada":"Acapu"},"geometry":{"type":"Point","coordinates":[-43.367473,-22.851506]}},{"type":"Feature","properties":{"data_versao":"2024-09-29","id_parada":"3090O00104C0","nome_parada":"Acapu"},"geometry":{"type":"Point","coordinates":[-43.368746,-22.851917]}},{"type":"Feature","properties":{"data_versao":"2024-09-29","id_parada":"3090O00020C0","nome_parada":"Acapu"},"geometry":{"type":"Point","coordinates":[-43.36716,-22.85154]}},{"type":"Feature","properties":{"data_versao":"2024-09-29","id_parada":"3054O00019C0","nome_parada":"Acari"},"geometry":{"type":"Point","coordinates":[-43.278138,-22.874057]}},{"type":"Feature","properties":{"data_versao":"2024-09-29","id_parada":"3040O00021C2","nome_parada":"Adail"},"geometry":{"type":"Point","coordinates":[-43.2537,-22.86021]}},{"type":"Feature","properties":{"data_versao":"2024-09-29","id_parada":"5148O00007C9","nome_parada":"Agaí"},"geometry":{"type":"Point","coordinates":[-43.64302,-22.88342]}},{"type":"Feature","properties":{"data_versao":"2024-09-29","id_parada":"5148O00032C9","nome_parada":"Agaí"},"geometry":{"type":"Point","coordinates":[-43.64381,-22.88424]}},{"type":"Feature","properties":{"data_versao":"2024-09-29","id_parada":"5144O00543C9","nome_parada":"Alves"},"geometry":{"type":"Point","coordinates":[-43.52134,-22.916022]}},{"type":"Feature","properties":{"data_versao":"2024-09-29","id_parada":"4122O00303C0","nome_parada":"Amado"},"geometry":{"type":"Point","coordinates":[-43.406062,-22.918821]}},{"type":"Feature","properties":{"data_versao":"2024-09-29","id_parada":"3156O00007C0","nome_parada":"Arapa"},"geometry":{"type":"Point","coordinates":[-43.26786,-22.862372]}},{"type":"Feature","properties":{"data_versao":"2024-09-29","id_parada":"5151O00126C9","nome_parada":"Areal"},"geometry":{"type":"Point","coordinates":[-43.578658,-22.956376]}},{"type":"Feature","properties":{"data_versao":"2024-09-29","id_parada":"4119O00044C0","nome_parada":"Areca"},"geometry":{"type":"Point","coordinates":[-43.383629,-22.940991]}},{"type":"Feature","properties":{"data_versao":"2024-09-29","id_parada":"5141O00165C0","nome_parada":"Artes"},"geometry":{"type":"Point","coordinates":[-43.47351,-22.88065]}},{"type":"Feature","properties":{"data_versao":"2024-09-29","id_parada":"5144O00090C9","nome_parada":"Assis"},"geometry":{"type":"Point","coordinates":[-43.589506,-22.888422]}},{"type":"Feature","properties":{"data_versao":"2024-09-29","id_parada":"5141O00017C9","nome_parada":"Bangu"},"geometry":{"type":"Point","coordinates":[-43.466103,-22.885858]}},{"type":"Feature","properties":{"data_versao":"2024-09-29","id_parada":"jic2","nome_parada":"Batan"},"geometry":{"type":"Point","coordinates":[-43.426353,-22.865519]}},{"type":"Feature","properties":{"data_versao":"2024-09-29","id_parada":"5139O00003C9","nome_parada":"Batan"},"geometry":{"type":"Point","coordinates":[-43.42724,-22.86502]}},{"type":"Feature","properties":{"data_versao":"2024-09-29","id_parada":"3082O00002C0","nome_parada":"Bauru"},"geometry":{"type":"Point","coordinates":[-43.34025,-22.88283]}},{"type":"Feature","properties":{"data_versao":"2024-09-29","id_parada":"2033O00188C0","nome_parada":"Bispo"},"geometry":{"type":"Point","coordinates":[-43.215123,-22.919841]}},{"type":"Feature","properties":{"data_versao":"2024-09-29","id_parada":"1007O00070C0","nome_parada":"Bispo"},"geometry":{"type":"Point","coordinates":[-43.20972,-22.92588]}},{"type":"Feature","properties":{"data_versao":"2024-09-29","id_parada":"kzpg","nome_parada":"Borel"},"geometry":{"type":"Point","coordinates":[-43.251978,-22.93951]}},{"type":"Feature","properties":{"data_versao":"2024-09-29","id_parada":"l03m","nome_parada":"Borel"},"geometry":{"type":"Point","coordinates":[-43.252022,-22.939395]}},{"type":"Feature","properties":{"data_versao":"2024-09-29","id_parada":"5144O00147C0","nome_parada":"Brejo"},"geometry":{"type":"Point","coordinates":[-43.576507,-22.896745]}},{"type":"Feature","properties":{"data_versao":"2024-09-29","id_parada":"3110O00049C9","nome_parada":"CEASA"},"geometry":{"type":"Point","coordinates":[-43.338717,-22.826794]}},{"type":"Feature","properties":{"data_versao":"2024-09-29","id_parada":"3105O00013C0","nome_parada":"CETEM"},"geometry":{"type":"Point","coordinates":[-43.221473,-22.860132]}},{"type":"Feature","properties":{"data_versao":"2024-09-29","id_parada":"3105O00014C0","nome_parada":"CETEM"},"geometry":{"type":"Point","coordinates":[-43.221675,-22.859837]}},{"type":"Feature","properties":{"data_versao":"2024-09-29","id_parada":"5142O00023C9","nome_parada":"Cairo"},"geometry":{"type":"Point","coordinates":[-43.48017,-22.88941]}},{"type":"Feature","properties":{"data_versao":"2024-09-29","id_parada":"3043O00057C0","nome_parada":"Cajá"},"geometry":{"type":"Point","coordinates":[-43.29006,-22.84706]}},{"type":"Feature","properties":{"data_versao":"2024-09-29","id_parada":"3076O00098C0","nome_parada":"Caobi"},"geometry":{"type":"Point","coordinates":[-43.325808,-22.850016]}},{"type":"Feature","properties":{"data_versao":"2024-09-29","id_parada":"5151O00165C9","nome_parada":"Cauim"},"geometry":{"type":"Point","coordinates":[-43.561478,-22.946038]}},{"type":"Feature","properties":{"data_versao":"2024-09-29","id_parada":"5144O00583C9","nome_parada":"Cauim"},"geometry":{"type":"Point","coordinates":[-43.561349,-22.946336]}},{"type":"Feature","properties":{"data_versao":"2024-09-29","id_parada":"5141O00129C0","nome_parada":"Ceres"},"geometry":{"type":"Point","coordinates":[-43.46694,-22.87346]}},{"type":"Feature","properties":{"data_versao":"2024-09-29","id_parada":"5149O00089C0","nome_parada":"Conde"},"geometry":{"type":"Point","coordinates":[-43.65708,-22.945551]}},{"type":"Feature","properties":{"data_versao":"2024-09-29","id_parada":"5149O00128C9","nome_parada":"Conde"},"geometry":{"type":"Point","coordinates":[-43.657721,-22.945628]}},{"type":"Feature","properties":{"data_versao":"2024-09-29","id_parada":"5149O00035C0","nome_parada":"Congo"},"geometry":{"type":"Point","coordinates":[-43.663399,-22.92171]}},{"type":"Feature","properties":{"data_versao":"2024-09-29","id_parada":"5149O00069C0","nome_parada":"Congo"},"geometry":{"type":"Point","coordinates":[-43.662695,-22.92197]}},{"type":"Feature","properties":{"data_versao":"2024-09-29","id_parada":"1006O00010C0","nome_parada":"Coroa"},"geometry":{"type":"Point","coordinates":[-43.19726,-22.92227]}},{"type":"Feature","properties":{"data_versao":"2024-09-29","id_parada":"1006O00018C0","nome_parada":"Coroa"},"geometry":{"type":"Point","coordinates":[-43.197393,-22.922234]}},{"type":"Feature","properties":{"data_versao":"2024-09-29","id_parada":"3058O00018C0","nome_parada":"Cotia"},"geometry":{"type":"Point","coordinates":[-43.24765,-22.89771]}},{"type":"Feature","properties":{"data_versao":"2024-09-29","id_parada":"3062O00026C2","nome_parada":"Cotia"},"geometry":{"type":"Point","coordinates":[-43.282263,-22.917678]}},{"type":"Feature","properties":{"data_versao":"2024-09-29","id_parada":"3044O00054C9","nome_parada":"Crato"},"geometry":{"type":"Point","coordinates":[-43.291945,-22.837897]}},{"type":"Feature","properties":{"data_versao":"2024-09-29","id_parada":"3044O00022C9","nome_parada":"Crato"},"geometry":{"type":"Point","coordinates":[-43.291889,-22.838135]}},{"type":"Feature","properties":{"data_versao":"2024-09-29","id_parada":"4119O00030C0","nome_parada":"Creso"},"geometry":{"type":"Point","coordinates":[-43.389638,-22.950218]}},{"type":"Feature","properties":{"data_versao":"2024-09-29","id_parada":"3043O00103C0","nome_parada":"Curua"},"geometry":{"type":"Point","coordinates":[-43.271163,-22.842404]}},{"type":"Feature","properties":{"data_versao":"2024-09-29","id_parada":"3046O00024C9","nome_parada":"Dante"},"geometry":{"type":"Point","coordinates":[-43.29849,-22.82091]}},{"type":"Feature","properties":{"data_versao":"2024-09-29","id_parada":"3046O00040C9","nome_parada":"Dante"},"geometry":{"type":"Point","coordinates":[-43.2985,-22.82066]}},{"type":"Feature","properties":{"data_versao":"2024-09-29","id_parada":"5149O00236C0","nome_parada":"Dover"},"geometry":{"type":"Point","coordinates":[-43.668971,-22.934396]}},{"type":"Feature","properties":{"data_versao":"2024-09-29","id_parada":"5149O00020C0","nome_parada":"Dover"},"geometry":{"type":"Point","coordinates":[-43.668606,-22.934378]}},{"type":"Feature","properties":{"data_versao":"2024-09-29","id_parada":"5149O00300C9","nome_parada":"Elias"},"geometry":{"type":"Point","coordinates":[-43.662436,-22.917041]}},{"type":"Feature","properties":{"data_versao":"2024-09-29","id_parada":"5149O00302C9","nome_parada":"Elias"},"geometry":{"type":"Point","coordinates":[-43.662651,-22.91689]}},{"type":"Feature","properties":{"data_versao":"2024-09-29","id_parada":"5141O00099C9","nome_parada":"Feira"},"geometry":{"type":"Point","coordinates":[-43.4688,-22.88068]}},{"type":"Feature","properties":{"data_versao":"2024-09-29","id_parada":"3059O00007C9","nome_parada":"Flack"},"geometry":{"type":"Point","coordinates":[-43.25528,-22.90118]}},{"type":"Feature","properties":{"data_versao":"2024-09-29","id_parada":"3051O00003C0","nome_parada":"Flack"},"geometry":{"type":"Point","coordinates":[-43.25557,-22.89465]}},{"type":"Feature","properties":{"data_versao":"2024-09-29","id_parada":"5151O00087C9","nome_parada":"Grama"},"geometry":{"type":"Point","coordinates":[-43.610065,-22.955686]}},{"type":"Feature","properties":{"data_versao":"2024-09-29","id_parada":"5151O00012C9","nome_parada":"Grama"},"geometry":{"type":"Point","coordinates":[-43.610362,-22.956007]}},{"type":"Feature","properties":{"data_versao":"2024-09-29","id_parada":"3110O00016C9","nome_parada":"Guare"},"geometry":{"type":"Point","coordinates":[-43.347561,-22.836024]}},{"type":"Feature","properties":{"data_versao":"2024-09-29","id_parada":"3076O00079C9","nome_parada":"Iandu"},"geometry":{"type":"Point","coordinates":[-43.31956,-22.84785]}},{"type":"Feature","properties":{"data_versao":"2024-09-29","id_parada":"3045O00012C9","nome_parada":"Idume"},"geometry":{"type":"Point","coordinates":[-43.29414,-22.82852]}},{"type":"Feature","properties":{"data_versao":"2024-09-29","id_parada":"3045O00021C9","nome_parada":"Idume"},"geometry":{"type":"Point","coordinates":[-43.29406,-22.82903]}},{"type":"Feature","properties":{"data_versao":"2024-09-29","id_parada":"4122O00033C0","nome_parada":"Ipadu"},"geometry":{"type":"Point","coordinates":[-43.389673,-22.924691]}},{"type":"Feature","properties":{"data_versao":"2024-09-29","id_parada":"4122O00308C0","nome_parada":"Ipadu"},"geometry":{"type":"Point","coordinates":[-43.390707,-22.925681]}},{"type":"Feature","properties":{"data_versao":"2024-09-29","id_parada":"4115O00226C2","nome_parada":"Ipadu"},"geometry":{"type":"Point","coordinates":[-43.39953,-22.92593]}},{"type":"Feature","properties":{"data_versao":"2024-09-29","id_parada":"4124BC0001E0","nome_parada":"Ipase"},"geometry":{"type":"Point","coordinates":[-43.35704,-22.90469]}},{"type":"Feature","properties":{"data_versao":"2024-09-29","id_parada":"5149O00280C9","nome_parada":"Ipês"},"geometry":{"type":"Point","coordinates":[-43.68256,-22.95238]}},{"type":"Feature","properties":{"data_versao":"2024-09-29","id_parada":"3056O00001C0","nome_parada":"Iriri"},"geometry":{"type":"Point","coordinates":[-43.309495,-22.869024]}},{"type":"Feature","properties":{"data_versao":"2024-09-29","id_parada":"3077O00046C1","nome_parada":"Itaim"},"geometry":{"type":"Point","coordinates":[-43.338748,-22.839994]}},{"type":"Feature","properties":{"data_versao":"2024-09-29","id_parada":"3107OY0049C9","nome_parada":"Itaí"},"geometry":{"type":"Point","coordinates":[-43.39715,-22.82108]}},{"type":"Feature","properties":{"data_versao":"2024-09-29","id_parada":"3099O00023C0","nome_parada":"Ituá"},"geometry":{"type":"Point","coordinates":[-43.206216,-22.81534]}},{"type":"Feature","properties":{"data_versao":"2024-09-29","id_parada":"5149O00221C9","nome_parada":"Lemos"},"geometry":{"type":"Point","coordinates":[-43.67992,-22.92036]}},{"type":"Feature","properties":{"data_versao":"2024-09-29","id_parada":"9ttc","nome_parada":"Loasa"},"geometry":{"type":"Point","coordinates":[-43.379286,-22.850079]}},{"type":"Feature","properties":{"data_versao":"2024-09-29","id_parada":"5134O00038C9","nome_parada":"Loasa"},"geometry":{"type":"Point","coordinates":[-43.37968,-22.84688]}},{"type":"Feature","properties":{"data_versao":"2024-09-29","id_parada":"3109O00012C0","nome_parada":"Lôbo"},"geometry":{"type":"Point","coordinates":[-43.39348,-22.836]}},{"type":"Feature","properties":{"data_versao":"2024-09-29","id_parada":"3048O00006C9","nome_parada":"Mabá"},"geometry":{"type":"Point","coordinates":[-43.314138,-22.817327]}},{"type":"Feature","properties":{"data_versao":"2024-09-29","id_parada":"3040O00038C2","nome_parada":"Magda"},"geometry":{"type":"Point","coordinates":[-43.26397,-22.86842]}},{"type":"Feature","properties":{"data_versao":"2024-09-29","id_parada":"3101O00019C0","nome_parada":"Malta"},"geometry":{"type":"Point","coordinates":[-43.196682,-22.799723]}},{"type":"Feature","properties":{"data_versao":"2024-09-29","id_parada":"5144O00069C9","nome_parada":"Manal"},"geometry":{"type":"Point","coordinates":[-43.561906,-22.902687]}},{"type":"Feature","properties":{"data_versao":"2024-09-29","id_parada":"3157BC0001E9","nome_parada":"Maré"},"geometry":{"type":"Point","coordinates":[-43.24367,-22.847]}},{"type":"Feature","properties":{"data_versao":"2024-09-29","id_parada":"3048O00009C0","nome_parada":"Mauro"},"geometry":{"type":"Point","coordinates":[-43.31062,-22.8192]}},{"type":"Feature","properties":{"data_versao":"2024-09-29","id_parada":"4117O00011C0","nome_parada":"Menta"},"geometry":{"type":"Point","coordinates":[-43.351168,-22.958178]}},{"type":"Feature","properties":{"data_versao":"2024-09-29","id_parada":"4122O00181C0","nome_parada":"Merck"},"geometry":{"type":"Point","coordinates":[-43.372466,-22.933364]}},{"type":"Feature","properties":{"data_versao":"2024-09-29","id_parada":"4122BC0003U0","nome_parada":"Merck"},"geometry":{"type":"Point","coordinates":[-43.37189,-22.93515]}},{"type":"Feature","properties":{"data_versao":"2024-09-29","id_parada":"5139O00057C9","nome_parada":"Moema"},"geometry":{"type":"Point","coordinates":[-43.419456,-22.875147]}},{"type":"Feature","properties":{"data_versao":"2024-09-29","id_parada":"2034O00029C0","nome_parada":"Muçu"},"geometry":{"type":"Point","coordinates":[-43.262564,-22.954149]}},{"type":"Feature","properties":{"data_versao":"2024-09-29","id_parada":"2034O00015C0","nome_parada":"Muçu"},"geometry":{"type":"Point","coordinates":[-43.2615,-22.95311]}},{"type":"Feature","properties":{"data_versao":"2024-09-29","id_parada":"5142O00018C9","nome_parada":"Norma"},"geometry":{"type":"Point","coordinates":[-43.496211,-22.882359]}},{"type":"Feature","properties":{"data_versao":"2024-09-29","id_parada":"3114O00038C0","nome_parada":"Palas"},"geometry":{"type":"Point","coordinates":[-43.35737,-22.81825]}},{"type":"Feature","properties":{"data_versao":"2024-09-29","id_parada":"3079O00034C0","nome_parada":"Palma"},"geometry":{"type":"Point","coordinates":[-43.318676,-22.895414]}},{"type":"Feature","properties":{"data_versao":"2024-09-29","id_parada":"3079O00015C0","nome_parada":"Palma"},"geometry":{"type":"Point","coordinates":[-43.318185,-22.895624]}},{"type":"Feature","properties":{"data_versao":"2024-09-29","id_parada":"3157O00005C2","nome_parada":"Paris"},"geometry":{"type":"Point","coordinates":[-43.247635,-22.864536]}},{"type":"Feature","properties":{"data_versao":"2024-09-29","id_parada":"3040O00014C1","nome_parada":"Paris"},"geometry":{"type":"Point","coordinates":[-43.24819,-22.86471]}},{"type":"Feature","properties":{"data_versao":"2024-09-29","id_parada":"5151O00076C9","nome_parada":"Piaí"},"geometry":{"type":"Point","coordinates":[-43.65144,-22.98749]}},{"type":"Feature","properties":{"data_versao":"2024-09-29","id_parada":"5151O00118C9","nome_parada":"Piaí"},"geometry":{"type":"Point","coordinates":[-43.65175,-22.98773]}},{"type":"Feature","properties":{"data_versao":"2024-09-29","id_parada":"3088O00006C0","nome_parada":"Piuna"},"geometry":{"type":"Point","coordinates":[-43.346324,-22.871589]}},{"type":"Feature","properties":{"data_versao":"2024-09-29","id_parada":"3089O00035C0","nome_parada":"Piupe"},"geometry":{"type":"Point","coordinates":[-43.3537,-22.85829]}},{"type":"Feature","properties":{"data_versao":"2024-09-29","id_parada":"5141O00291C0","nome_parada":"Porto"},"geometry":{"type":"Point","coordinates":[-43.458971,-22.875171]}},{"type":"Feature","properties":{"data_versao":"2024-09-29","id_parada":"5143O00030C9","nome_parada":"Posse"},"geometry":{"type":"Point","coordinates":[-43.51364,-22.874825]}},{"type":"Feature","properties":{"data_versao":"2024-09-29","id_parada":"5143O00029C0","nome_parada":"Posse"},"geometry":{"type":"Point","coordinates":[-43.5138,-22.8744]}},{"type":"Feature","properties":{"data_versao":"2024-09-29","id_parada":"5149O00142C9","nome_parada":"Prado"},"geometry":{"type":"Point","coordinates":[-43.68816,-22.91187]}},{"type":"Feature","properties":{"data_versao":"2024-09-29","id_parada":"5149O00114C9","nome_parada":"Prado"},"geometry":{"type":"Point","coordinates":[-43.686989,-22.914803]}},{"type":"Feature","properties":{"data_versao":"2024-09-29","id_parada":"5149O00266C9","nome_parada":"Prado"},"geometry":{"type":"Point","coordinates":[-43.687065,-22.914671]}},{"type":"Feature","properties":{"data_versao":"2024-09-29","id_parada":"3043O00109C0","nome_parada":"Quito"},"geometry":{"type":"Point","coordinates":[-43.277322,-22.838299]}},{"type":"Feature","properties":{"data_versao":"2024-09-29","id_parada":"3043O00108C0","nome_parada":"Quito"},"geometry":{"type":"Point","coordinates":[-43.276513,-22.837046]}},{"type":"Feature","properties":{"data_versao":"2024-09-29","id_parada":"3043O00042C0","nome_parada":"Quito"},"geometry":{"type":"Point","coordinates":[-43.27835,-22.83588]}},{"type":"Feature","properties":{"data_versao":"2024-09-29","id_parada":"3089O00031C0","nome_parada":"Rauen"},"geometry":{"type":"Point","coordinates":[-43.355335,-22.861899]}},{"type":"Feature","properties":{"data_versao":"2024-09-29","id_parada":"3089O00065C0","nome_parada":"Rauen"},"geometry":{"type":"Point","coordinates":[-43.355288,-22.861452]}},{"type":"Feature","properties":{"data_versao":"2024-09-29","id_parada":"4115O00192C0","nome_parada":"Rio 2"},"geometry":{"type":"Point","coordinates":[-43.384766,-22.973001]}},{"type":"Feature","properties":{"data_versao":"2024-09-29","id_parada":"4128BC0004E0","nome_parada":"Rio 2"},"geometry":{"type":"Point","coordinates":[-43.38279,-22.97324]}},{"type":"Feature","properties":{"data_versao":"2024-09-29","id_parada":"3058O00005C9","nome_parada":"Rocha"},"geometry":{"type":"Point","coordinates":[-43.2481,-22.90092]}},{"type":"Feature","properties":{"data_versao":"2024-09-29","id_parada":"4122O00004C0","nome_parada":"Roche"},"geometry":{"type":"Point","coordinates":[-43.3723,-22.9406]}},{"type":"Feature","properties":{"data_versao":"2024-09-29","id_parada":"4122O00065C0","nome_parada":"Roche"},"geometry":{"type":"Point","coordinates":[-43.37284,-22.94055]}},{"type":"Feature","properties":{"data_versao":"2024-09-29","id_parada":"5148O00047C9","nome_parada":"Rosal"},"geometry":{"type":"Point","coordinates":[-43.63381,-22.91797]}},{"type":"Feature","properties":{"data_versao":"2024-09-29","id_parada":"4125O00045C0","nome_parada":"Rosas"},"geometry":{"type":"Point","coordinates":[-43.362919,-22.881799]}},{"type":"Feature","properties":{"data_versao":"2024-09-29","id_parada":"4125O00022C0","nome_parada":"Rosas"},"geometry":{"type":"Point","coordinates":[-43.36388,-22.88764]}},{"type":"Feature","properties":{"data_versao":"2024-09-29","id_parada":"4125O00047C0","nome_parada":"Rosas"},"geometry":{"type":"Point","coordinates":[-43.362466,-22.88171]}},{"type":"Feature","properties":{"data_versao":"2024-09-29","id_parada":"4125O00053C0","nome_parada":"Rosas"},"geometry":{"type":"Point","coordinates":[-43.362978,-22.888305]}},{"type":"Feature","properties":{"data_versao":"2024-09-29","id_parada":"5144O00399C1","nome_parada":"Rosas"},"geometry":{"type":"Point","coordinates":[-43.56844,-22.93816]}},{"type":"Feature","properties":{"data_versao":"2024-09-29","id_parada":"3086O00010C2","nome_parada":"Rubis"},"geometry":{"type":"Point","coordinates":[-43.35038,-22.85466]}},{"type":"Feature","properties":{"data_versao":"2024-09-29","id_parada":"3110O00014C2","nome_parada":"Rubis"},"geometry":{"type":"Point","coordinates":[-43.350747,-22.838462]}},{"type":"Feature","properties":{"data_versao":"2024-09-29","id_parada":"3086O00005C1","nome_parada":"Rubis"},"geometry":{"type":"Point","coordinates":[-43.35086,-22.85371]}},{"type":"Feature","properties":{"data_versao":"2024-09-29","id_parada":"4121O00040C0","nome_parada":"SENAI"},"geometry":{"type":"Point","coordinates":[-43.35248,-22.93376]}},{"type":"Feature","properties":{"data_versao":"2024-09-29","id_parada":"5149O00265C9","nome_parada":"Sales"},"geometry":{"type":"Point","coordinates":[-43.677516,-22.896593]}},{"type":"Feature","properties":{"data_versao":"2024-09-29","id_parada":"5149O00081C9","nome_parada":"Sales"},"geometry":{"type":"Point","coordinates":[-43.677296,-22.896743]}},{"type":"Feature","properties":{"data_versao":"2024-09-29","id_parada":"3085O00024C9","nome_parada":"Sapê"},"geometry":{"type":"Point","coordinates":[-43.34785,-22.86198]}},{"type":"Feature","properties":{"data_versao":"2024-09-29","id_parada":"3079O00014C0","nome_parada":"Saçu"},"geometry":{"type":"Point","coordinates":[-43.319739,-22.895136]}},{"type":"Feature","properties":{"data_versao":"2024-09-29","id_parada":"3069O00031C0","nome_parada":"Silva"},"geometry":{"type":"Point","coordinates":[-43.316141,-22.89575]}},{"type":"Feature","properties":{"data_versao":"2024-09-29","id_parada":"3069O00048C0","nome_parada":"Simas"},"geometry":{"type":"Point","coordinates":[-43.30849,-22.89822]}},{"type":"Feature","properties":{"data_versao":"2024-09-29","id_parada":"3113O00012C0","nome_parada":"Sinai"},"geometry":{"type":"Point","coordinates":[-43.372727,-22.826022]}},{"type":"Feature","properties":{"data_versao":"2024-09-29","id_parada":"5141O00138C0","nome_parada":"Sitia"},"geometry":{"type":"Point","coordinates":[-43.46498,-22.86649]}},{"type":"Feature","properties":{"data_versao":"2024-09-29","id_parada":"5141O00311C0","nome_parada":"Sitia"},"geometry":{"type":"Point","coordinates":[-43.463888,-22.866577]}},{"type":"Feature","properties":{"data_versao":"2024-09-29","id_parada":"3082O00046C0","nome_parada":"Souto"},"geometry":{"type":"Point","coordinates":[-43.327836,-22.889107]}},{"type":"Feature","properties":{"data_versao":"2024-09-29","id_parada":"3079O00031C0","nome_parada":"Souto"},"geometry":{"type":"Point","coordinates":[-43.327825,-22.889322]}},{"type":"Feature","properties":{"data_versao":"2024-09-29","id_parada":"3082O00032C9","nome_parada":"Souto"},"geometry":{"type":"Point","coordinates":[-43.32471,-22.886118]}},{"type":"Feature","properties":{"data_versao":"2024-09-29","id_parada":"5151O00283C9","nome_parada":"Sussi"},"geometry":{"type":"Point","coordinates":[-43.638277,-22.97723]}},{"type":"Feature","properties":{"data_versao":"2024-09-29","id_parada":"5141O00255C9","nome_parada":"Taigo"},"geometry":{"type":"Point","coordinates":[-43.513455,-22.860431]}},{"type":"Feature","properties":{"data_versao":"2024-09-29","id_parada":"5141O00021C9","nome_parada":"Taigo"},"geometry":{"type":"Point","coordinates":[-43.513684,-22.860723]}},{"type":"Feature","properties":{"data_versao":"2024-09-29","id_parada":"5151O00039C0","nome_parada":"Taxas"},"geometry":{"type":"Point","coordinates":[-43.55926,-22.98739]}},{"type":"Feature","properties":{"data_versao":"2024-09-29","id_parada":"mfeq","nome_parada":"Tirol"},"geometry":{"type":"Point","coordinates":[-43.332428,-22.94004]}},{"type":"Feature","properties":{"data_versao":"2024-09-29","id_parada":"4120O00082C0","nome_parada":"Tirol"},"geometry":{"type":"Point","coordinates":[-43.332319,-22.93999]}},{"type":"Feature","properties":{"data_versao":"2024-09-29","id_parada":"4120O00123C0","nome_parada":"Tirol"},"geometry":{"type":"Point","coordinates":[-43.334911,-22.939059]}},{"type":"Feature","properties":{"data_versao":"2024-09-29","id_parada":6503,"nome_parada":"Torre"},"geometry":{"type":"Point","coordinates":[-43.511023,-22.872211]}},{"type":"Feature","properties":{"data_versao":"2024-09-29","id_parada":"5142O00037C0","nome_parada":"Ubata"},"geometry":{"type":"Point","coordinates":[-43.48795,-22.87124]}},{"type":"Feature","properties":{"data_versao":"2024-09-29","id_parada":"5144O00457C9","nome_parada":"Uruna"},"geometry":{"type":"Point","coordinates":[-43.560476,-22.907354]}},{"type":"Feature","properties":{"data_versao":"2024-09-29","id_parada":"5141O00288C9","nome_parada":"Usina"},"geometry":{"type":"Point","coordinates":[-43.454824,-22.893432]}},{"type":"Feature","properties":{"data_versao":"2024-09-29","id_parada":"4122O00211C0","nome_parada":"Verde"},"geometry":{"type":"Point","coordinates":[-43.384134,-22.939261]}},{"type":"Feature","properties":{"data_versao":"2024-09-29","id_parada":"5149O00307C0","nome_parada":"Vinte"},"geometry":{"type":"Point","coordinates":[-43.658614,-22.922295]}},{"type":"Feature","properties":{"data_versao":"2024-09-29","id_parada":"5149O00070C0","nome_parada":"Vinte"},"geometry":{"type":"Point","coordinates":[-43.659083,-22.922385]}},{"type":"Feature","properties":{"data_versao":"2024-09-29","id_parada":"2030O00010C0","nome_parada":"Vip's"},"geometry":{"type":"Point","coordinates":[-43.243597,-23.000162]}},{"type":"Feature","properties":{"data_versao":"2024-09-29","id_parada":"3059O00003C0","nome_parada":"Vizeu"},"geometry":{"type":"Point","coordinates":[-43.254813,-22.894892]}},{"type":"Feature","properties":{"data_versao":"2024-09-29","id_parada":"5141O00168C0","nome_parada":"Volga"},"geometry":{"type":"Point","coordinates":[-43.47353,-22.88934]}},{"type":"Feature","properties":{"data_versao":"2024-09-29","id_parada":"4120O00091C0","nome_parada":"Xingu"},"geometry":{"type":"Point","coordinates":[-43.34048,-22.93875]}},{"type":"Feature","properties":{"data_versao":"2024-09-29","id_parada":"3045O00017C9","nome_parada":"Ápia"},"geometry":{"type":"Point","coordinates":[-43.30446,-22.83973]}},{"type":"Feature","properties":{"data_versao":"2024-09-29","id_parada":"2154O00018C0","nome_parada":"Ápia"},"geometry":{"type":"Point","coordinates":[-43.252328,-22.990563]}},{"type":"Feature","properties":{"data_versao":"2024-09-29","id_parada":"2031O00040C0","nome_parada":"Ápia"},"geometry":{"type":"Point","coordinates":[-43.252408,-22.990903]}},{"type":"Feature","properties":{"data_versao":"2024-09-29","id_parada":"5144O00322C9","nome_parada":"Íris"},"geometry":{"type":"Point","coordinates":[-43.557349,-22.935779]}},{"type":"Feature","properties":{"data_versao":"2024-09-29","id_parada":"5144O00277C9","nome_parada":"Íris"},"geometry":{"type":"Point","coordinates":[-43.55769,-22.936138]}},{"type":"Feature","properties":{"data_versao":"2024-09-29","id_parada":"3087O00011C0","nome_parada":"Ônix"},"geometry":{"type":"Point","coordinates":[-43.354955,-22.851414]}},{"type":"Feature","properties":{"data_versao":"2024-09-29","id_parada":"3086O00036C9","nome_parada":"Ônix"},"geometry":{"type":"Point","coordinates":[-43.35222,-22.85083]}},{"type":"Feature","properties":{"data_versao":"2024-09-29","id_parada":"5141O00302C0","nome_parada":"Abaete"},"geometry":{"type":"Point","coordinates":[-43.4565,-22.881679]}},{"type":"Feature","properties":{"data_versao":"2024-09-29","id_parada":"5140O00104C0","nome_parada":"Acurua"},"geometry":{"type":"Point","coordinates":[-43.453276,-22.880767]}},{"type":"Feature","properties":{"data_versao":"2024-09-29","id_parada":"5140O00006C9","nome_parada":"Acurua"},"geometry":{"type":"Point","coordinates":[-43.454027,-22.876345]}},{"type":"Feature","properties":{"data_versao":"2024-09-29","id_parada":"3093O00011C0","nome_parada":"Alasca"},"geometry":{"type":"Point","coordinates":[-43.18828,-22.81894]}},{"type":"Feature","properties":{"data_versao":"2024-09-29","id_parada":"3093O00008C0","nome_parada":"Alasca"},"geometry":{"type":"Point","coordinates":[-43.18809,-22.81825]}},{"type":"Feature","properties":{"data_versao":"2024-09-29","id_parada":"4124O00055C0","nome_parada":"Albano"},"geometry":{"type":"Point","coordinates":[-43.355699,-22.902442]}},{"type":"Feature","properties":{"data_versao":"2024-09-29","id_parada":"4124O00003C0","nome_parada":"Albano"},"geometry":{"type":"Point","coordinates":[-43.354926,-22.901801]}},{"type":"Feature","properties":{"data_versao":"2024-09-29","id_parada":"2037O00029C0","nome_parada":"Amaral"},"geometry":{"type":"Point","coordinates":[-43.2436,-22.92477]}},{"type":"Feature","properties":{"data_versao":"2024-09-29","id_parada":"2037O00054C0","nome_parada":"Amaral"},"geometry":{"type":"Point","coordinates":[-43.24586,-22.92147]}},{"type":"Feature","properties":{"data_versao":"2024-09-29","id_parada":"3069O00057C9","nome_parada":"Amorim"},"geometry":{"type":"Point","coordinates":[-43.310537,-22.898274]}},{"type":"Feature","properties":{"data_versao":"2024-09-29","id_parada":"3069O00015C0","nome_parada":"Amorim"},"geometry":{"type":"Point","coordinates":[-43.311066,-22.896324]}},{"type":"Feature","properties":{"data_versao":"2024-09-29","id_parada":"4115O00229C0","nome_parada":"Amparo"},"geometry":{"type":"Point","coordinates":[-43.335122,-22.975956]}},{"type":"Feature","properties":{"data_versao":"2024-09-29","id_parada":"4115O00247C0","nome_parada":"Amparo"},"geometry":{"type":"Point","coordinates":[-43.334974,-22.975916]}},{"type":"Feature","properties":{"data_versao":"2024-09-29","id_parada":"1005O00190C0","nome_parada":"Ancine"},"geometry":{"type":"Point","coordinates":[-43.174306,-22.909323]}},{"type":"Feature","properties":{"data_versao":"2024-09-29","id_parada":"3072O00001C0","nome_parada":"Angaí"},"geometry":{"type":"Point","coordinates":[-43.31064,-22.8514]}},{"type":"Feature","properties":{"data_versao":"2024-09-29","id_parada":"3107O00061C0","nome_parada":"Apirui"},"geometry":{"type":"Point","coordinates":[-43.40619,-22.82869]}},{"type":"Feature","properties":{"data_versao":"2024-09-29","id_parada":"3107O00062C0","nome_parada":"Apirui"},"geometry":{"type":"Point","coordinates":[-43.40628,-22.82856]}},{"type":"Feature","properties":{"data_versao":"2024-09-29","id_parada":"3054O00037C0","nome_parada":"Aporá"},"geometry":{"type":"Point","coordinates":[-43.27454,-22.87243]}},{"type":"Feature","properties":{"data_versao":"2024-09-29","id_parada":"2038O00072C0","nome_parada":"Araxá"},"geometry":{"type":"Point","coordinates":[-43.258904,-22.920715]}},{"type":"Feature","properties":{"data_versao":"2024-09-29","id_parada":"2038O00076C0","nome_parada":"Araxá"},"geometry":{"type":"Point","coordinates":[-43.26331,-22.92193]}},{"type":"Feature","properties":{"data_versao":"2024-09-29","id_parada":"5141O00077C0","nome_parada":"Arimbu"},"geometry":{"type":"Point","coordinates":[-43.461404,-22.885277]}},{"type":"Feature","properties":{"data_versao":"2024-09-29","id_parada":"5141O00172C0","nome_parada":"Arimbu"},"geometry":{"type":"Point","coordinates":[-43.461007,-22.885375]}},{"type":"Feature","properties":{"data_versao":"2024-09-29","id_parada":"3049O00017C0","nome_parada":"Arinos"},"geometry":{"type":"Point","coordinates":[-43.31864,-22.81292]}},{"type":"Feature","properties":{"data_versao":"2024-09-29","id_parada":"3093O00013C0","nome_parada":"Arriba"},"geometry":{"type":"Point","coordinates":[-43.18622,-22.81662]}},{"type":"Feature","properties":{"data_versao":"2024-09-29","id_parada":"5141O00118C0","nome_parada":"Arroio"},"geometry":{"type":"Point","coordinates":[-43.458501,-22.87138]}},{"type":"Feature","properties":{"data_versao":"2024-09-29","id_parada":"5141O00200C0","nome_parada":"Arroio"},"geometry":{"type":"Point","coordinates":[-43.45858,-22.87123]}},{"type":"Feature","properties":{"data_versao":"2024-09-29","id_parada":"3043O00110C0","nome_parada":"Aurora"},"geometry":{"type":"Point","coordinates":[-43.282531,-22.836905]}},{"type":"Feature","properties":{"data_versao":"2024-09-29","id_parada":"5144O00118C9","nome_parada":"Avaré"},"geometry":{"type":"Point","coordinates":[-43.562146,-22.910267]}},{"type":"Feature","properties":{"data_versao":"2024-09-29","id_parada":"2034O00066C9","nome_parada":"Açude"},"geometry":{"type":"Point","coordinates":[-43.276925,-22.964331]}},{"type":"Feature","properties":{"data_versao":"2024-09-29","id_parada":"3087O00016C0","nome_parada":"Bagdad"},"geometry":{"type":"Point","coordinates":[-43.360071,-22.855671]}},{"type":"Feature","properties":{"data_versao":"2024-09-29","id_parada":"5144O00291C9","nome_parada":"Baiano"},"geometry":{"type":"Point","coordinates":[-43.54343,-22.85245]}},{"type":"Feature","properties":{"data_versao":"2024-09-29","id_parada":"5144O00294C9","nome_parada":"Baiano"},"geometry":{"type":"Point","coordinates":[-43.54364,-22.85259]}},{"type":"Feature","properties":{"data_versao":"2024-09-29","id_parada":"3042O00023C0","nome_parada":"Barros"},"geometry":{"type":"Point","coordinates":[-43.27512,-22.84901]}},{"type":"Feature","properties":{"data_versao":"2024-09-29","id_parada":"3042O00008C0","nome_parada":"Barros"},"geometry":{"type":"Point","coordinates":[-43.27553,-22.84918]}},{"type":"Feature","properties":{"data_versao":"2024-09-29","id_parada":"4124O00031C0","nome_parada":"Barão"},"geometry":{"type":"Point","coordinates":[-43.34779,-22.90189]}},{"type":"Feature","properties":{"data_versao":"2024-09-29","id_parada":"3045O00015C1","nome_parada":"Batata"},"geometry":{"type":"Point","coordinates":[-43.28083,-22.82239]}},{"type":"Feature","properties":{"data_versao":"2024-09-29","id_parada":"3044O00002C2","nome_parada":"Batata"},"geometry":{"type":"Point","coordinates":[-43.280654,-22.821798]}},{"type":"Feature","properties":{"data_versao":"2024-09-29","id_parada":"5141O00131C0","nome_parada":"Belila"},"geometry":{"type":"Point","coordinates":[-43.4724,-22.87407]}},{"type":"Feature","properties":{"data_versao":"2024-09-29","id_parada":"5139O00231C0","nome_parada":"Belém"},"geometry":{"type":"Point","coordinates":[-43.435499,-22.864042]}},{"type":"Feature","properties":{"data_versao":"2024-09-29","id_parada":"2034O00009C0","nome_parada":"Biguá"},"geometry":{"type":"Point","coordinates":[-43.28289,-22.97098]}},{"type":"Feature","properties":{"data_versao":"2024-09-29","id_parada":"3099O00018C9","nome_parada":"Boemia"},"geometry":{"type":"Point","coordinates":[-43.19416,-22.81108]}},{"type":"Feature","properties":{"data_versao":"2024-09-29","id_parada":"567v","nome_parada":"Boiaca"},"geometry":{"type":"Point","coordinates":[-43.3594,-22.873997]}},{"type":"Feature","properties":{"data_versao":"2024-09-29","id_parada":"3089O00014C0","nome_parada":"Boiaca"},"geometry":{"type":"Point","coordinates":[-43.36105,-22.87783]}},{"type":"Feature","properties":{"data_versao":"2024-09-29","id_parada":"5141O00259C0","nome_parada":"Boiobi"},"geometry":{"type":"Point","coordinates":[-43.47387,-22.8862]}},{"type":"Feature","properties":{"data_versao":"2024-09-29","id_parada":"5141O00038C9","nome_parada":"Boiobi"},"geometry":{"type":"Point","coordinates":[-43.473897,-22.88041]}},{"type":"Feature","properties":{"data_versao":"2024-09-29","id_parada":"5151O00244C9","nome_parada":"Bonfim"},"geometry":{"type":"Point","coordinates":[-43.601608,-22.947266]}},{"type":"Feature","properties":{"data_versao":"2024-09-29","id_parada":"5149O00099C9","nome_parada":"Borges"},"geometry":{"type":"Point","coordinates":[-43.679215,-22.912307]}},{"type":"Feature","properties":{"data_versao":"2024-09-29","id_parada":"fevs","nome_parada":"Borges"},"geometry":{"type":"Point","coordinates":[-43.679322,-22.912336]}},{"type":"Feature","properties":{"data_versao":"2024-09-29","id_parada":"5148O00003C9","nome_parada":"Brafer"},"geometry":{"type":"Point","coordinates":[-43.62305,-22.879034]}},{"type":"Feature","properties":{"data_versao":"2024-09-29","id_parada":"5148O00064C9","nome_parada":"Brafer"},"geometry":{"type":"Point","coordinates":[-43.624506,-22.879861]}},{"type":"Feature","properties":{"data_versao":"2024-09-29","id_parada":"5139O00093C0","nome_parada":"Brasil"},"geometry":{"type":"Point","coordinates":[-43.42624,-22.86639]}},{"type":"Feature","properties":{"data_versao":"2024-09-29","id_parada":"3110O00005C0","nome_parada":"Brasil"},"geometry":{"type":"Point","coordinates":[-43.34832,-22.83062]}},{"type":"Feature","properties":{"data_versao":"2024-09-29","id_parada":"1004O00025C0","nome_parada":"Brasil"},"geometry":{"type":"Point","coordinates":[-43.219215,-22.888207]}},{"type":"Feature","properties":{"data_versao":"2024-09-29","id_parada":"5134O00003C0","nome_parada":"Brasil"},"geometry":{"type":"Point","coordinates":[-43.38424,-22.85086]}},{"type":"Feature","properties":{"data_versao":"2024-09-29","id_parada":"3112O00008C0","nome_parada":"Brasil"},"geometry":{"type":"Point","coordinates":[-43.36273,-22.83718]}},{"type":"Feature","properties":{"data_versao":"2024-09-29","id_parada":"5139O00254C0","nome_parada":"Brasil"},"geometry":{"type":"Point","coordinates":[-43.426413,-22.866307]}},{"type":"Feature","properties":{"data_versao":"2024-09-29","id_parada":"1004O00008C0","nome_parada":"Brasil"},"geometry":{"type":"Point","coordinates":[-43.22547,-22.88385]}},{"type":"Feature","properties":{"data_versao":"2024-09-29","id_parada":"5141O00069C0","nome_parada":"Brasil"},"geometry":{"type":"Point","coordinates":[-43.50823,-22.86195]}},{"type":"Feature","properties":{"data_versao":"2024-09-29","id_parada":"5141O00062C0","nome_parada":"Brasil"},"geometry":{"type":"Point","coordinates":[-43.50792,-22.86177]}},{"type":"Feature","properties":{"data_versao":"2024-09-29","id_parada":"1010O00050C0","nome_parada":"Brasil"},"geometry":{"type":"Point","coordinates":[-43.21521,-22.89578]}},{"type":"Feature","properties":{"data_versao":"2024-09-29","id_parada":"5134O00023C0","nome_parada":"Brasil"},"geometry":{"type":"Point","coordinates":[-43.38404,-22.85069]}},{"type":"Feature","properties":{"data_versao":"2024-09-29","id_parada":"1004O00014C0","nome_parada":"Brasil"},"geometry":{"type":"Point","coordinates":[-43.22595,-22.88343]}},{"type":"Feature","properties":{"data_versao":"2024-09-29","id_parada":"3041O00038C0","nome_parada":"Brasil"},"geometry":{"type":"Point","coordinates":[-43.25329,-22.84199]}},{"type":"Feature","properties":{"data_versao":"2024-09-29","id_parada":"5w1w","nome_parada":"Brasil"},"geometry":{"type":"Point","coordinates":[-43.345394,-22.82922]}},{"type":"Feature","properties":{"data_versao":"2024-09-29","id_parada":"5140O00083C0","nome_parada":"Brasil"},"geometry":{"type":"Point","coordinates":[-43.453189,-22.859741]}},{"type":"Feature","properties":{"data_versao":"2024-09-29","id_parada":"3076O00102C9","nome_parada":"Brasil"},"geometry":{"type":"Point","coordinates":[-43.33122,-22.823137]}},{"type":"Feature","properties":{"data_versao":"2024-09-29","id_parada":"5140O00049C0","nome_parada":"Brasil"},"geometry":{"type":"Point","coordinates":[-43.452939,-22.859921]}},{"type":"Feature","properties":{"data_versao":"2024-09-29","id_parada":"5151O00237C9","nome_parada":"Brisas"},"geometry":{"type":"Point","coordinates":[-43.65132,-22.99095]}},{"type":"Feature","properties":{"data_versao":"2024-09-29","id_parada":"5151O00004C9","nome_parada":"Brisas"},"geometry":{"type":"Point","coordinates":[-43.65141,-22.99098]}},{"type":"Feature","properties":{"data_versao":"2024-09-29","id_parada":"4125O00039C0","nome_parada":"Bruges"},"geometry":{"type":"Point","coordinates":[-43.35711,-22.88427]}},{"type":"Feature","properties":{"data_versao":"2024-09-29","id_parada":"3083O00046C0","nome_parada":"Buriti"},"geometry":{"type":"Point","coordinates":[-43.33917,-22.86501]}},{"type":"Feature","properties":{"data_versao":"2024-09-29","id_parada":"5144O00046C0","nome_parada":"Butiá"},"geometry":{"type":"Point","coordinates":[-43.55485,-22.89938]}},{"type":"Feature","properties":{"data_versao":"2024-09-29","id_parada":"3044O00058C0","nome_parada":"Butuí"},"geometry":{"type":"Point","coordinates":[-43.301349,-22.838525]}},{"type":"Feature","properties":{"data_versao":"2024-09-29","id_parada":"3105O00005C0","nome_parada":"CENPES"},"geometry":{"type":"Point","coordinates":[-43.234976,-22.850332]}},{"type":"Feature","properties":{"data_versao":"2024-09-29","id_parada":"3105O00017C0","nome_parada":"CENPES"},"geometry":{"type":"Point","coordinates":[-43.232723,-22.852831]}},{"type":"Feature","properties":{"data_versao":"2024-09-29","id_parada":"3105O00008C0","nome_parada":"CENPES"},"geometry":{"type":"Point","coordinates":[-43.233036,-22.853086]}},{"type":"Feature","properties":{"data_versao":"2024-09-29","id_parada":"5151O00043C0","nome_parada":"Cabral"},"geometry":{"type":"Point","coordinates":[-43.575887,-22.987824]}},{"type":"Feature","properties":{"data_versao":"2024-09-29","id_parada":"5151O00320C0","nome_parada":"Cabral"},"geometry":{"type":"Point","coordinates":[-43.57546,-22.98767]}},{"type":"Feature","properties":{"data_versao":"2024-09-29","id_parada":"3088O00031C0","nome_parada":"Caburi"},"geometry":{"type":"Point","coordinates":[-43.350803,-22.85969]}},{"type":"Feature","properties":{"data_versao":"2024-09-29","id_parada":"3100O00001C0","nome_parada":"Cacuia"},"geometry":{"type":"Point","coordinates":[-43.18465,-22.810443]}},{"type":"Feature","properties":{"data_versao":"2024-09-29","id_parada":"3096O00004C0","nome_parada":"Cacuia"},"geometry":{"type":"Point","coordinates":[-43.18376,-22.80881]}},{"type":"Feature","properties":{"data_versao":"2024-09-29","id_parada":"4132O00093C0","nome_parada":"Caeté"},"geometry":{"type":"Point","coordinates":[-43.50944,-23.02503]}},{"type":"Feature","properties":{"data_versao":"2024-09-29","id_parada":"4132O00116C0","nome_parada":"Caeté"},"geometry":{"type":"Point","coordinates":[-43.509173,-23.025188]}},{"type":"Feature","properties":{"data_versao":"2024-09-29","id_parada":"4132O00104C0","nome_parada":"Caité"},"geometry":{"type":"Point","coordinates":[-43.499196,-23.02855]}},{"type":"Feature","properties":{"data_versao":"2024-09-29","id_parada":"4132O00090C0","nome_parada":"Caité"},"geometry":{"type":"Point","coordinates":[-43.499353,-23.028268]}},{"type":"Feature","properties":{"data_versao":"2024-09-29","id_parada":"4119O00034C0","nome_parada":"Calmom"},"geometry":{"type":"Point","coordinates":[-43.387785,-22.944736]}},{"type":"Feature","properties":{"data_versao":"2024-09-29","id_parada":"4115O00185C0","nome_parada":"Calmom"},"geometry":{"type":"Point","coordinates":[-43.388071,-22.944812]}},{"type":"Feature","properties":{"data_versao":"2024-09-29","id_parada":"3090O00057C0","nome_parada":"Canaã"},"geometry":{"type":"Point","coordinates":[-43.363668,-22.856491]}},{"type":"Feature","properties":{"data_versao":"2024-09-29","id_parada":"3090O00011C0","nome_parada":"Canaã"},"geometry":{"type":"Point","coordinates":[-43.36384,-22.85656]}},{"type":"Feature","properties":{"data_versao":"2024-09-29","id_parada":"5142O00029C0","nome_parada":"Candez"},"geometry":{"type":"Point","coordinates":[-43.495084,-22.872807]}},{"type":"Feature","properties":{"data_versao":"2024-09-29","id_parada":"djub","nome_parada":"Capuri"},"geometry":{"type":"Point","coordinates":[-43.260525,-22.996211]}},{"type":"Feature","properties":{"data_versao":"2024-09-29","id_parada":"4116O00052C0","nome_parada":"Caribu"},"geometry":{"type":"Point","coordinates":[-43.343447,-22.952603]}},{"type":"Feature","properties":{"data_versao":"2024-09-29","id_parada":"4116O00023C0","nome_parada":"Caribu"},"geometry":{"type":"Point","coordinates":[-43.343404,-22.952104]}},{"type":"Feature","properties":{"data_versao":"2024-09-29","id_parada":"4120O00049C0","nome_parada":"Caribu"},"geometry":{"type":"Point","coordinates":[-43.34823,-22.94864]}},{"type":"Feature","properties":{"data_versao":"2024-09-29","id_parada":"3101O00032C0","nome_parada":"Carice"},"geometry":{"type":"Point","coordinates":[-43.185209,-22.792693]}},{"type":"Feature","properties":{"data_versao":"2024-09-29","id_parada":"3101O00023C0","nome_parada":"Carice"},"geometry":{"type":"Point","coordinates":[-43.18512,-22.79255]}},{"type":"Feature","properties":{"data_versao":"2024-09-29","id_parada":"3101O00033C0","nome_parada":"Carice"},"geometry":{"type":"Point","coordinates":[-43.186648,-22.793043]}},{"type":"Feature","properties":{"data_versao":"2024-09-29","id_parada":"3101O00024C0","nome_parada":"Carice"},"geometry":{"type":"Point","coordinates":[-43.186714,-22.792918]}},{"type":"Feature","properties":{"data_versao":"2024-09-29","id_parada":"040w","nome_parada":"Catiri"},"geometry":{"type":"Point","coordinates":[-43.472351,-22.85716]}},{"type":"Feature","properties":{"data_versao":"2024-09-29","id_parada":"5141O00151C9","nome_parada":"Catiri"},"geometry":{"type":"Point","coordinates":[-43.463828,-22.851764]}},{"type":"Feature","properties":{"data_versao":"2024-09-29","id_parada":"5141O00254C9","nome_parada":"Catiri"},"geometry":{"type":"Point","coordinates":[-43.47218,-22.8568]}},{"type":"Feature","properties":{"data_versao":"2024-09-29","id_parada":"5141O00182C0","nome_parada":"Catiri"},"geometry":{"type":"Point","coordinates":[-43.472047,-22.857771]}},{"type":"Feature","properties":{"data_versao":"2024-09-29","id_parada":"5153O00035C0","nome_parada":"Catruz"},"geometry":{"type":"Point","coordinates":[-43.6341,-22.99978]}},{"type":"Feature","properties":{"data_versao":"2024-09-29","id_parada":"5151O00255C9","nome_parada":"Catruz"},"geometry":{"type":"Point","coordinates":[-43.65048,-22.99337]}},{"type":"Feature","properties":{"data_versao":"2024-09-29","id_parada":"5153O00005C0","nome_parada":"Catruz"},"geometry":{"type":"Point","coordinates":[-43.650597,-22.99359]}},{"type":"Feature","properties":{"data_versao":"2024-09-29","id_parada":"5141O00030C9","nome_parada":"Cavani"},"geometry":{"type":"Point","coordinates":[-43.474677,-22.878237]}},{"type":"Feature","properties":{"data_versao":"2024-09-29","id_parada":"1010O00034C0","nome_parada":"Ceará"},"geometry":{"type":"Point","coordinates":[-43.21843,-22.90757]}},{"type":"Feature","properties":{"data_versao":"2024-09-29","id_parada":"3046O00011C9","nome_parada":"Cecari"},"geometry":{"type":"Point","coordinates":[-43.29881,-22.822257]}},{"type":"Feature","properties":{"data_versao":"2024-09-29","id_parada":"5139O00037C9","nome_parada":"Ceriba"},"geometry":{"type":"Point","coordinates":[-43.44123,-22.880539]}},{"type":"Feature","properties":{"data_versao":"2024-09-29","id_parada":"3044O00007C0","nome_parada":"Cintra"},"geometry":{"type":"Point","coordinates":[-43.27944,-22.83216]}},{"type":"Feature","properties":{"data_versao":"2024-09-29","id_parada":"3045O00049C9","nome_parada":"Cintra"},"geometry":{"type":"Point","coordinates":[-43.2852,-22.82813]}},{"type":"Feature","properties":{"data_versao":"2024-09-29","id_parada":"3103O00011C9","nome_parada":"Colina"},"geometry":{"type":"Point","coordinates":[-43.206768,-22.805041]}},{"type":"Feature","properties":{"data_versao":"2024-09-29","id_parada":"5144O00492C9","nome_parada":"Comari"},"geometry":{"type":"Point","coordinates":[-43.561098,-22.91883]}},{"type":"Feature","properties":{"data_versao":"2024-09-29","id_parada":"5144O00592C9","nome_parada":"Comari"},"geometry":{"type":"Point","coordinates":[-43.559043,-22.918386]}},{"type":"Feature","properties":{"data_versao":"2024-09-29","id_parada":"4115O00106C0","nome_parada":"Condor"},"geometry":{"type":"Point","coordinates":[-43.41824,-22.91605]}},{"type":"Feature","properties":{"data_versao":"2024-09-29","id_parada":"5147BM0001E0","nome_parada":"Cosmos"},"geometry":{"type":"Point","coordinates":[-43.616114,-22.915654]}},{"type":"Feature","properties":{"data_versao":"2024-09-29","id_parada":"5147O00096C9","nome_parada":"Cosmos"},"geometry":{"type":"Point","coordinates":[-43.61388,-22.90336]}},{"type":"Feature","properties":{"data_versao":"2024-09-29","id_parada":"4115O00093C0","nome_parada":"Creche"},"geometry":{"type":"Point","coordinates":[-43.395166,-22.943896]}},{"type":"Feature","properties":{"data_versao":"2024-09-29","id_parada":"3107O00047C0","nome_parada":"Cumata"},"geometry":{"type":"Point","coordinates":[-43.40157,-22.82182]}},{"type":"Feature","properties":{"data_versao":"2024-09-29","id_parada":"5144O00061C9","nome_parada":"DETRAN"},"geometry":{"type":"Point","coordinates":[-43.544439,-22.86311]}},{"type":"Feature","properties":{"data_versao":"2024-09-29","id_parada":"5144O00217C9","nome_parada":"DETRAN"},"geometry":{"type":"Point","coordinates":[-43.545591,-22.863183]}},{"type":"Feature","properties":{"data_versao":"2024-09-29","id_parada":"1005O00034S9","nome_parada":"Debret"},"geometry":{"type":"Point","coordinates":[-43.17396,-22.90732]}},{"type":"Feature","properties":{"data_versao":"2024-09-29","id_parada":"3101O00016C0","nome_parada":"Dendê"},"geometry":{"type":"Point","coordinates":[-43.18282,-22.79965]}},{"type":"Feature","properties":{"data_versao":"2024-09-29","id_parada":"3101O00002C0","nome_parada":"Dendê"},"geometry":{"type":"Point","coordinates":[-43.18292,-22.79975]}},{"type":"Feature","properties":{"data_versao":"2024-09-29","id_parada":"5144O00050C9","nome_parada":"Emaús"},"geometry":{"type":"Point","coordinates":[-43.55925,-22.89185]}},{"type":"Feature","properties":{"data_versao":"2024-09-29","id_parada":"5140O00096C0","nome_parada":"Envira"},"geometry":{"type":"Point","coordinates":[-43.445307,-22.886919]}},{"type":"Feature","properties":{"data_versao":"2024-09-29","id_parada":"5150O00095C9","nome_parada":"Estiva"},"geometry":{"type":"Point","coordinates":[-43.68771,-22.97056]}},{"type":"Feature","properties":{"data_versao":"2024-09-29","id_parada":"1006O00009C0","nome_parada":"Fallet"},"geometry":{"type":"Point","coordinates":[-43.1979,-22.92357]}},{"type":"Feature","properties":{"data_versao":"2024-09-29","id_parada":"1006O00008C0","nome_parada":"Fallet"},"geometry":{"type":"Point","coordinates":[-43.19849,-22.92414]}},{"type":"Feature","properties":{"data_versao":"2024-09-29","id_parada":"2020O00083C0","nome_parada":"Farani"},"geometry":{"type":"Point","coordinates":[-43.18061,-22.943774]}},{"type":"Feature","properties":{"data_versao":"2024-09-29","id_parada":"2020O00134C0","nome_parada":"Farani"},"geometry":{"type":"Point","coordinates":[-43.180541,-22.943212]}},{"type":"Feature","properties":{"data_versao":"2024-09-29","id_parada":"2020O00156C0","nome_parada":"Farani"},"geometry":{"type":"Point","coordinates":[-43.179984,-22.942227]}},{"type":"Feature","properties":{"data_versao":"2024-09-29","id_parada":"3082O00047C0","nome_parada":"Ferraz"},"geometry":{"type":"Point","coordinates":[-43.330104,-22.887444]}},{"type":"Feature","properties":{"data_versao":"2024-09-29","id_parada":"3082O00056C0","nome_parada":"Ferraz"},"geometry":{"type":"Point","coordinates":[-43.326623,-22.884224]}},{"type":"Feature","properties":{"data_versao":"2024-09-29","id_parada":"5144O00266C0","nome_parada":"Furado"},"geometry":{"type":"Point","coordinates":[-43.618833,-22.885298]}},{"type":"Feature","properties":{"data_versao":"2024-09-29","id_parada":"5148O00009C0","nome_parada":"Furado"},"geometry":{"type":"Point","coordinates":[-43.618773,-22.885617]}},{"type":"Feature","properties":{"data_versao":"2024-09-29","id_parada":"4127O00065C0","nome_parada":"Furnas"},"geometry":{"type":"Point","coordinates":[-43.295352,-22.982289]}},{"type":"Feature","properties":{"data_versao":"2024-09-29","id_parada":"4127O00064C0","nome_parada":"Furnas"},"geometry":{"type":"Point","coordinates":[-43.295081,-22.981622]}},{"type":"Feature","properties":{"data_versao":"2024-09-29","id_parada":"3071O00026C0","nome_parada":"Gaspar"},"geometry":{"type":"Point","coordinates":[-43.29549,-22.87862]}},{"type":"Feature","properties":{"data_versao":"2024-09-29","id_parada":"3071O00035C0","nome_parada":"Gaspar"},"geometry":{"type":"Point","coordinates":[-43.295614,-22.878649]}},{"type":"Feature","properties":{"data_versao":"2024-09-29","id_parada":"n9ct","nome_parada":"Genova"},"geometry":{"type":"Point","coordinates":[-43.394937,-22.834597]}},{"type":"Feature","properties":{"data_versao":"2024-09-29","id_parada":"3109O00021C0","nome_parada":"Genova"},"geometry":{"type":"Point","coordinates":[-43.39474,-22.83489]}},{"type":"Feature","properties":{"data_versao":"2024-09-29","id_parada":"3069O00007C0","nome_parada":"Goiás"},"geometry":{"type":"Point","coordinates":[-43.30614,-22.89213]}},{"type":"Feature","properties":{"data_versao":"2024-09-29","id_parada":"3068O00004C0","nome_parada":"Goiás"},"geometry":{"type":"Point","coordinates":[-43.30385,-22.89385]}},{"type":"Feature","properties":{"data_versao":"2024-09-29","id_parada":"5144O00081C0","nome_parada":"Gralha"},"geometry":{"type":"Point","coordinates":[-43.569268,-22.885229]}},{"type":"Feature","properties":{"data_versao":"2024-09-29","id_parada":"3096O00006C0","nome_parada":"Graná"},"geometry":{"type":"Point","coordinates":[-43.181721,-22.807558]}},{"type":"Feature","properties":{"data_versao":"2024-09-29","id_parada":"3096O00003C0","nome_parada":"Graná"},"geometry":{"type":"Point","coordinates":[-43.18253,-22.80656]}},{"type":"Feature","properties":{"data_versao":"2024-09-29","id_parada":"5143O00040C0","nome_parada":"Guandu"},"geometry":{"type":"Point","coordinates":[-43.529305,-22.86656]}},{"type":"Feature","properties":{"data_versao":"2024-09-29","id_parada":"5144O00643C1","nome_parada":"Guandu"},"geometry":{"type":"Point","coordinates":[-43.518733,-22.844832]}},{"type":"Feature","properties":{"data_versao":"2024-09-29","id_parada":"5144O00384C0","nome_parada":"Guandu"},"geometry":{"type":"Point","coordinates":[-43.51854,-22.844798]}},{"type":"Feature","properties":{"data_versao":"2024-09-29","id_parada":"3044O00059C0","nome_parada":"Guará"},"geometry":{"type":"Point","coordinates":[-43.29928,-22.83849]}},{"type":"Feature","properties":{"data_versao":"2024-09-29","id_parada":"djnq","nome_parada":"Gurupi"},"geometry":{"type":"Point","coordinates":[-43.260348,-22.92074]}},{"type":"Feature","properties":{"data_versao":"2024-09-29","id_parada":"5141O00196C0","nome_parada":"Havana"},"geometry":{"type":"Point","coordinates":[-43.46078,-22.87509]}},{"type":"Feature","properties":{"data_versao":"2024-09-29","id_parada":"5139O00118C9","nome_parada":"Helena"},"geometry":{"type":"Point","coordinates":[-43.429625,-22.880539]}},{"type":"Feature","properties":{"data_versao":"2024-09-29","id_parada":"5141O00225C0","nome_parada":"Henfil"},"geometry":{"type":"Point","coordinates":[-43.48761,-22.84845]}},{"type":"Feature","properties":{"data_versao":"2024-09-29","id_parada":"5144O00030C9","nome_parada":"Hermes"},"geometry":{"type":"Point","coordinates":[-43.5742,-22.86524]}},{"type":"Feature","properties":{"data_versao":"2024-09-29","id_parada":"5144O00421C9","nome_parada":"Hermes"},"geometry":{"type":"Point","coordinates":[-43.57482,-22.86561]}},{"type":"Feature","properties":{"data_versao":"2024-09-29","id_parada":"5141O00121C0","nome_parada":"Iberê"},"geometry":{"type":"Point","coordinates":[-43.450038,-22.871767]}},{"type":"Feature","properties":{"data_versao":"2024-09-29","id_parada":"3045O00032C9","nome_parada":"Icapó"},"geometry":{"type":"Point","coordinates":[-43.28994,-22.83077]}},{"type":"Feature","properties":{"data_versao":"2024-09-29","id_parada":"5150O00088C9","nome_parada":"Igreja"},"geometry":{"type":"Point","coordinates":[-43.70055,-22.96222]}},{"type":"Feature","properties":{"data_versao":"2024-09-29","id_parada":"5150O00008C0","nome_parada":"Igreja"},"geometry":{"type":"Point","coordinates":[-43.70078,-22.96229]}},{"type":"Feature","properties":{"data_versao":"2024-09-29","id_parada":"4123O00018C0","nome_parada":"Imbuí"},"geometry":{"type":"Point","coordinates":[-43.367463,-22.916959]}},{"type":"Feature","properties":{"data_versao":"2024-09-29","id_parada":"3043O00009C0","nome_parada":"Ingaí"},"geometry":{"type":"Point","coordinates":[-43.2711,-22.82998]}},{"type":"Feature","properties":{"data_versao":"2024-09-29","id_parada":"3063O00007C2","nome_parada":"Ingaí"},"geometry":{"type":"Point","coordinates":[-43.27026,-22.82991]}},{"type":"Feature","properties":{"data_versao":"2024-09-29","id_parada":"3045O00004C0","nome_parada":"Ipeuva"},"geometry":{"type":"Point","coordinates":[-43.30153,-22.83006]}},{"type":"Feature","properties":{"data_versao":"2024-09-29","id_parada":"3045O00054C9","nome_parada":"Ipeuva"},"geometry":{"type":"Point","coordinates":[-43.30148,-22.82978]}},{"type":"Feature","properties":{"data_versao":"2024-09-29","id_parada":"3093O00009C0","nome_parada":"Ipiaba"},"geometry":{"type":"Point","coordinates":[-43.18849,-22.81916]}},{"type":"Feature","properties":{"data_versao":"2024-09-29","id_parada":"5149O00222C9","nome_parada":"Isabel"},"geometry":{"type":"Point","coordinates":[-43.68013,-22.919]}},{"type":"Feature","properties":{"data_versao":"2024-09-29","id_parada":"5144O00401C9","nome_parada":"Itauá"},"geometry":{"type":"Point","coordinates":[-43.54081,-22.92224]}},{"type":"Feature","properties":{"data_versao":"2024-09-29","id_parada":"5151O00285C9","nome_parada":"Jaburu"},"geometry":{"type":"Point","coordinates":[-43.610655,-22.957839]}},{"type":"Feature","properties":{"data_versao":"2024-09-29","id_parada":"3045O00037C9","nome_parada":"Jacuí"},"geometry":{"type":"Point","coordinates":[-43.29144,-22.83465]}},{"type":"Feature","properties":{"data_versao":"2024-09-29","id_parada":"5140O00039C9","nome_parada":"Japeju"},"geometry":{"type":"Point","coordinates":[-43.4425,-22.884564]}},{"type":"Feature","properties":{"data_versao":"2024-09-29","id_parada":"5140O00076C9","nome_parada":"Japeju"},"geometry":{"type":"Point","coordinates":[-43.442567,-22.884491]}},{"type":"Feature","properties":{"data_versao":"2024-09-29","id_parada":"1007O00043C0","nome_parada":"Japeri"},"geometry":{"type":"Point","coordinates":[-43.21113,-22.92261]}},{"type":"Feature","properties":{"data_versao":"2024-09-29","id_parada":"3089O00024C0","nome_parada":"Jubaí"},"geometry":{"type":"Point","coordinates":[-43.36759,-22.877]}},{"type":"Feature","properties":{"data_versao":"2024-09-29","id_parada":"3090O00089C2","nome_parada":"Jubaí"},"geometry":{"type":"Point","coordinates":[-43.369806,-22.872114]}},{"type":"Feature","properties":{"data_versao":"2024-09-29","id_parada":"3090O00087C1","nome_parada":"Jubaí"},"geometry":{"type":"Point","coordinates":[-43.369784,-22.871954]}},{"type":"Feature","properties":{"data_versao":"2024-09-29","id_parada":"3076O00129C0","nome_parada":"Jucari"},"geometry":{"type":"Point","coordinates":[-43.321179,-22.849535]}},{"type":"Feature","properties":{"data_versao":"2024-09-29","id_parada":"5144O00491C9","nome_parada":"Jupati"},"geometry":{"type":"Point","coordinates":[-43.560326,-22.91702]}},{"type":"Feature","properties":{"data_versao":"2024-09-29","id_parada":"5142O00041C0","nome_parada":"Juracy"},"geometry":{"type":"Point","coordinates":[-43.496985,-22.872488]}},{"type":"Feature","properties":{"data_versao":"2024-09-29","id_parada":"5151O00009C9","nome_parada":"Jurema"},"geometry":{"type":"Point","coordinates":[-43.60634,-22.951448]}},{"type":"Feature","properties":{"data_versao":"2024-09-29","id_parada":"5151O00089C9","nome_parada":"Jurema"},"geometry":{"type":"Point","coordinates":[-43.6067,-22.952012]}},{"type":"Feature","properties":{"data_versao":"2024-09-29","id_parada":"3086O00076C0","nome_parada":"Lapira"},"geometry":{"type":"Point","coordinates":[-43.346909,-22.856734]}},{"type":"Feature","properties":{"data_versao":"2024-09-29","id_parada":"3053O00026C0","nome_parada":"Lavras"},"geometry":{"type":"Point","coordinates":[-43.269893,-22.882286]}},{"type":"Feature","properties":{"data_versao":"2024-09-29","id_parada":"3053O00013C0","nome_parada":"Lavras"},"geometry":{"type":"Point","coordinates":[-43.27087,-22.88245]}},{"type":"Feature","properties":{"data_versao":"2024-09-29","id_parada":"3071O00007C0","nome_parada":"Lorena"},"geometry":{"type":"Point","coordinates":[-43.299302,-22.871267]}},{"type":"Feature","properties":{"data_versao":"2024-09-29","id_parada":"3041O00004C0","nome_parada":"Lígia"},"geometry":{"type":"Point","coordinates":[-43.26377,-22.85329]}},{"type":"Feature","properties":{"data_versao":"2024-09-29","id_parada":"3099O00012C9","nome_parada":"Macari"},"geometry":{"type":"Point","coordinates":[-43.18903,-22.81514]}},{"type":"Feature","properties":{"data_versao":"2024-09-29","id_parada":"3050O00004C0","nome_parada":"Mallet"},"geometry":{"type":"Point","coordinates":[-43.26571,-22.86976]}},{"type":"Feature","properties":{"data_versao":"2024-09-29","id_parada":"3156O00010C1","nome_parada":"Mallet"},"geometry":{"type":"Point","coordinates":[-43.266595,-22.868352]}},{"type":"Feature","properties":{"data_versao":"2024-09-29","id_parada":"5139O00232C9","nome_parada":"Manaus"},"geometry":{"type":"Point","coordinates":[-43.43201,-22.864645]}},{"type":"Feature","properties":{"data_versao":"2024-09-29","id_parada":"5139O00004C9","nome_parada":"Manaus"},"geometry":{"type":"Point","coordinates":[-43.432799,-22.864184]}},{"type":"Feature","properties":{"data_versao":"2024-09-29","id_parada":"4122O00032C0","nome_parada":"Mapuá"},"geometry":{"type":"Point","coordinates":[-43.387308,-22.924702]}},{"type":"Feature","properties":{"data_versao":"2024-09-29","id_parada":"4122O00085C0","nome_parada":"Mapuá"},"geometry":{"type":"Point","coordinates":[-43.386373,-22.924571]}},{"type":"Feature","properties":{"data_versao":"2024-09-29","id_parada":"5136O00014C1","nome_parada":"Marina"},"geometry":{"type":"Point","coordinates":[-43.37365,-22.8742]}},{"type":"Feature","properties":{"data_versao":"2024-09-29","id_parada":"4119O00048C0","nome_parada":"Marolo"},"geometry":{"type":"Point","coordinates":[-43.392586,-22.956278]}},{"type":"Feature","properties":{"data_versao":"2024-09-29","id_parada":"3071O00022C0","nome_parada":"Mateus"},"geometry":{"type":"Point","coordinates":[-43.29079,-22.87833]}},{"type":"Feature","properties":{"data_versao":"2024-09-29","id_parada":"2033O00189C0","nome_parada":"Matoso"},"geometry":{"type":"Point","coordinates":[-43.21223,-22.918276]}},{"type":"Feature","properties":{"data_versao":"2024-09-29","id_parada":"3076O00038C9","nome_parada":"Maués"},"geometry":{"type":"Point","coordinates":[-43.314822,-22.837267]}},{"type":"Feature","properties":{"data_versao":"2024-09-29","id_parada":"2038O00075C0","nome_parada":"Mearim"},"geometry":{"type":"Point","coordinates":[-43.261923,-22.921407]}},{"type":"Feature","properties":{"data_versao":"2024-09-29","id_parada":"3073O00018C0","nome_parada":"Meriti"},"geometry":{"type":"Point","coordinates":[-43.30835,-22.85806]}},{"type":"Feature","properties":{"data_versao":"2024-09-29","id_parada":"3048O00010C0","nome_parada":"Meriti"},"geometry":{"type":"Point","coordinates":[-43.31448,-22.81962]}},{"type":"Feature","properties":{"data_versao":"2024-09-29","id_parada":"5141O00135C0","nome_parada":"Mestre"},"geometry":{"type":"Point","coordinates":[-43.48107,-22.87401]}},{"type":"Feature","properties":{"data_versao":"2024-09-29","id_parada":"3045O00055C9","nome_parada":"Mimosa"},"geometry":{"type":"Point","coordinates":[-43.306417,-22.835987]}},{"type":"Feature","properties":{"data_versao":"2024-09-29","id_parada":"5144O00604C0","nome_parada":"Moinho"},"geometry":{"type":"Point","coordinates":[-43.536232,-22.92929]}},{"type":"Feature","properties":{"data_versao":"2024-09-29","id_parada":"4122O00022C0","nome_parada":"Morais"},"geometry":{"type":"Point","coordinates":[-43.37313,-22.9307]}},{"type":"Feature","properties":{"data_versao":"2024-09-29","id_parada":"3055O00005C0","nome_parada":"Moreia"},"geometry":{"type":"Point","coordinates":[-43.28986,-22.86552]}},{"type":"Feature","properties":{"data_versao":"2024-09-29","id_parada":"5142O00049C0","nome_parada":"Murici"},"geometry":{"type":"Point","coordinates":[-43.48767,-22.87353]}},{"type":"Feature","properties":{"data_versao":"2024-09-29","id_parada":"3052O00016C0","nome_parada":"Murilo"},"geometry":{"type":"Point","coordinates":[-43.26421,-22.88588]}},{"type":"Feature","properties":{"data_versao":"2024-09-29","id_parada":"3106O00053C9","nome_parada":"Natuba"},"geometry":{"type":"Point","coordinates":[-43.37597,-22.84291]}},{"type":"Feature","properties":{"data_versao":"2024-09-29","id_parada":"5149O00047C9","nome_parada":"Nestor"},"geometry":{"type":"Point","coordinates":[-43.68947,-22.93096]}},{"type":"Feature","properties":{"data_versao":"2024-09-29","id_parada":"5149O00060C9","nome_parada":"Nestor"},"geometry":{"type":"Point","coordinates":[-43.68902,-22.93091]}},{"type":"Feature","properties":{"data_versao":"2024-09-29","id_parada":"3114O00034C9","nome_parada":"Netuno"},"geometry":{"type":"Point","coordinates":[-43.35715,-22.8054]}},{"type":"Feature","properties":{"data_versao":"2024-09-29","id_parada":"5139O00026C9","nome_parada":"Ocaibi"},"geometry":{"type":"Point","coordinates":[-43.440612,-22.898166]}},{"type":"Feature","properties":{"data_versao":"2024-09-29","id_parada":"5139O00140C9","nome_parada":"Ocaibi"},"geometry":{"type":"Point","coordinates":[-43.440362,-22.898192]}},{"type":"Feature","properties":{"data_versao":"2024-09-29","id_parada":"3042BC0001E0","nome_parada":"Olaria"},"geometry":{"type":"Point","coordinates":[-43.26542,-22.84858]}},{"type":"Feature","properties":{"data_versao":"2024-09-29","id_parada":"3086O00034C9","nome_parada":"Opalas"},"geometry":{"type":"Point","coordinates":[-43.35272,-22.8495]}},{"type":"Feature","properties":{"data_versao":"2024-09-29","id_parada":"3086O00022C9","nome_parada":"Opalas"},"geometry":{"type":"Point","coordinates":[-43.350038,-22.847979]}},{"type":"Feature","properties":{"data_versao":"2024-09-29","id_parada":"3086O00077C0","nome_parada":"Opalas"},"geometry":{"type":"Point","coordinates":[-43.35259,-22.849449]}},{"type":"Feature","properties":{"data_versao":"2024-09-29","id_parada":"3086O00012C0","nome_parada":"Opalas"},"geometry":{"type":"Point","coordinates":[-43.355074,-22.851154]}},{"type":"Feature","properties":{"data_versao":"2024-09-29","id_parada":"4121O00063C0","nome_parada":"Pacoti"},"geometry":{"type":"Point","coordinates":[-43.356319,-22.928637]}},{"type":"Feature","properties":{"data_versao":"2024-09-29","id_parada":"4131O00018C0","nome_parada":"Pacuí"},"geometry":{"type":"Point","coordinates":[-43.494785,-22.976585]}},{"type":"Feature","properties":{"data_versao":"2024-09-29","id_parada":"4131O00030C0","nome_parada":"Pacuí"},"geometry":{"type":"Point","coordinates":[-43.494694,-22.976331]}},{"type":"Feature","properties":{"data_versao":"2024-09-29","id_parada":"3098O00003C0","nome_parada":"Paraim"},"geometry":{"type":"Point","coordinates":[-43.16436,-22.7893]}},{"type":"Feature","properties":{"data_versao":"2024-09-29","id_parada":"5144O00361C0","nome_parada":"Pardal"},"geometry":{"type":"Point","coordinates":[-43.569288,-22.893738]}},{"type":"Feature","properties":{"data_versao":"2024-09-29","id_parada":"5144O00459C2","nome_parada":"Pardal"},"geometry":{"type":"Point","coordinates":[-43.569124,-22.893711]}},{"type":"Feature","properties":{"data_versao":"2024-09-29","id_parada":"2033O00197C0","nome_parada":"Pareto"},"geometry":{"type":"Point","coordinates":[-43.2297,-22.92174]}},{"type":"Feature","properties":{"data_versao":"2024-09-29","id_parada":"3074O00017C0","nome_parada":"Parmê"},"geometry":{"type":"Point","coordinates":[-43.30503,-22.84712]}},{"type":"Feature","properties":{"data_versao":"2024-09-29","id_parada":"1010O00046C0","nome_parada":"Parque"},"geometry":{"type":"Point","coordinates":[-43.22267,-22.90403]}},{"type":"Feature","properties":{"data_versao":"2024-09-29","id_parada":"3074O00022C2","nome_parada":"Pascal"},"geometry":{"type":"Point","coordinates":[-43.31155,-22.84652]}},{"type":"Feature","properties":{"data_versao":"2024-09-29","id_parada":"3042O00049C0","nome_parada":"Penedo"},"geometry":{"type":"Point","coordinates":[-43.269125,-22.84422]}},{"type":"Feature","properties":{"data_versao":"2024-09-29","id_parada":"3042O00094C2","nome_parada":"Penedo"},"geometry":{"type":"Point","coordinates":[-43.268928,-22.84412]}},{"type":"Feature","properties":{"data_versao":"2024-09-29","id_parada":"4123O00046C0","nome_parada":"Piatã"},"geometry":{"type":"Point","coordinates":[-43.360706,-22.921746]}},{"type":"Feature","properties":{"data_versao":"2024-09-29","id_parada":"3066O00058C1","nome_parada":"Piauí"},"geometry":{"type":"Point","coordinates":[-43.28657,-22.88708]}},{"type":"Feature","properties":{"data_versao":"2024-09-29","id_parada":"3064O00016C0","nome_parada":"Piauí"},"geometry":{"type":"Point","coordinates":[-43.287087,-22.896732]}},{"type":"Feature","properties":{"data_versao":"2024-09-29","id_parada":"3089O00046C0","nome_parada":"Picuí"},"geometry":{"type":"Point","coordinates":[-43.357076,-22.864968]}},{"type":"Feature","properties":{"data_versao":"2024-09-29","id_parada":"3090O00003C0","nome_parada":"Piraí"},"geometry":{"type":"Point","coordinates":[-43.37044,-22.85717]}},{"type":"Feature","properties":{"data_versao":"2024-09-29","id_parada":"3090O00051C0","nome_parada":"Piraí"},"geometry":{"type":"Point","coordinates":[-43.370262,-22.85744]}},{"type":"Feature","properties":{"data_versao":"2024-09-29","id_parada":"3045O00031C9","nome_parada":"Piriá"},"geometry":{"type":"Point","coordinates":[-43.287469,-22.829852]}},{"type":"Feature","properties":{"data_versao":"2024-09-29","id_parada":"3045O00025C9","nome_parada":"Piriá"},"geometry":{"type":"Point","coordinates":[-43.28818,-22.829404]}},{"type":"Feature","properties":{"data_versao":"2024-09-29","id_parada":"3040O00010C0","nome_parada":"Piumbi"},"geometry":{"type":"Point","coordinates":[-43.257394,-22.862104]}},{"type":"Feature","properties":{"data_versao":"2024-09-29","id_parada":"3040O00005C0","nome_parada":"Piumbi"},"geometry":{"type":"Point","coordinates":[-43.256953,-22.863002]}},{"type":"Feature","properties":{"data_versao":"2024-09-29","id_parada":"3092O00008C0","nome_parada":"Pojuca"},"geometry":{"type":"Point","coordinates":[-43.175787,-22.82354]}},{"type":"Feature","properties":{"data_versao":"2024-09-29","id_parada":"3091O00004C0","nome_parada":"Pojuca"},"geometry":{"type":"Point","coordinates":[-43.17484,-22.82369]}},{"type":"Feature","properties":{"data_versao":"2024-09-29","id_parada":"4131BO0084E9","nome_parada":"Pontal"},"geometry":{"type":"Point","coordinates":[-43.51603,-23.016279]}},{"type":"Feature","properties":{"data_versao":"2024-09-29","id_parada":"1011O00008C0","nome_parada":"Poteri"},"geometry":{"type":"Point","coordinates":[-43.239234,-22.905917]}},{"type":"Feature","properties":{"data_versao":"2024-09-29","id_parada":"5141O00006C9","nome_parada":"Quafá"},"geometry":{"type":"Point","coordinates":[-43.50672,-22.85973]}},{"type":"Feature","properties":{"data_versao":"2024-09-29","id_parada":"5143O00019C0","nome_parada":"Quafá"},"geometry":{"type":"Point","coordinates":[-43.50986,-22.86786]}},{"type":"Feature","properties":{"data_versao":"2024-09-29","id_parada":"j7jf","nome_parada":"Quafá"},"geometry":{"type":"Point","coordinates":[-43.482272,-22.855405]}},{"type":"Feature","properties":{"data_versao":"2024-09-29","id_parada":"5141O00022C9","nome_parada":"Quafá"},"geometry":{"type":"Point","coordinates":[-43.50596,-22.8602]}},{"type":"Feature","properties":{"data_versao":"2024-09-29","id_parada":"5150O00004C9","nome_parada":"Quatro"},"geometry":{"type":"Point","coordinates":[-43.688896,-22.956356]}},{"type":"Feature","properties":{"data_versao":"2024-09-29","id_parada":"3107O00064C0","nome_parada":"Quebec"},"geometry":{"type":"Point","coordinates":[-43.405203,-22.825155]}},{"type":"Feature","properties":{"data_versao":"2024-09-29","id_parada":"5141O00005C9","nome_parada":"Quiabo"},"geometry":{"type":"Point","coordinates":[-43.502831,-22.85867]}},{"type":"Feature","properties":{"data_versao":"2024-09-29","id_parada":"3045O00030C9","nome_parada":"Quiare"},"geometry":{"type":"Point","coordinates":[-43.2863,-22.82824]}},{"type":"Feature","properties":{"data_versao":"2024-09-29","id_parada":"5150O00063C9","nome_parada":"Raposa"},"geometry":{"type":"Point","coordinates":[-43.69438,-22.96965]}},{"type":"Feature","properties":{"data_versao":"2024-09-29","id_parada":"5150O00097C9","nome_parada":"Raposa"},"geometry":{"type":"Point","coordinates":[-43.69481,-22.96953]}},{"type":"Feature","properties":{"data_versao":"2024-09-29","id_parada":"5139O00006C9","nome_parada":"Recife"},"geometry":{"type":"Point","coordinates":[-43.43716,-22.8634]}},{"type":"Feature","properties":{"data_versao":"2024-09-29","id_parada":"5139O00230C0","nome_parada":"Recife"},"geometry":{"type":"Point","coordinates":[-43.43729,-22.86376]}},{"type":"Feature","properties":{"data_versao":"2024-09-29","id_parada":"4127O00005C0","nome_parada":"Regata"},"geometry":{"type":"Point","coordinates":[-43.32867,-22.987749]}},{"type":"Feature","properties":{"data_versao":"2024-09-29","id_parada":"4127O00046C0","nome_parada":"Regata"},"geometry":{"type":"Point","coordinates":[-43.32881,-22.98731]}},{"type":"Feature","properties":{"data_versao":"2024-09-29","id_parada":"5145O00043C9","nome_parada":"Regina"},"geometry":{"type":"Point","coordinates":[-43.53906,-22.89946]}},{"type":"Feature","properties":{"data_versao":"2024-09-29","id_parada":"5145O00011C9","nome_parada":"Regina"},"geometry":{"type":"Point","coordinates":[-43.53914,-22.89934]}},{"type":"Feature","properties":{"data_versao":"2024-09-29","id_parada":"5145O00020C9","nome_parada":"Regina"},"geometry":{"type":"Point","coordinates":[-43.54034,-22.89817]}},{"type":"Feature","properties":{"data_versao":"2024-09-29","id_parada":"5149O00272C9","nome_parada":"Regina"},"geometry":{"type":"Point","coordinates":[-43.685539,-22.936372]}},{"type":"Feature","properties":{"data_versao":"2024-09-29","id_parada":"5134O00017C9","nome_parada":"RioLuz"},"geometry":{"type":"Point","coordinates":[-43.378038,-22.858486]}},{"type":"Feature","properties":{"data_versao":"2024-09-29","id_parada":"4128BO0005E0","nome_parada":"Riomar"},"geometry":{"type":"Point","coordinates":[-43.40689,-22.99994]}},{"type":"Feature","properties":{"data_versao":"2024-09-29","id_parada":"4128O00006C0","nome_parada":"Riomar"},"geometry":{"type":"Point","coordinates":[-43.408534,-23.000324]}},{"type":"Feature","properties":{"data_versao":"2024-09-29","id_parada":"4128O00104C0","nome_parada":"Riomar"},"geometry":{"type":"Point","coordinates":[-43.407351,-22.999431]}},{"type":"Feature","properties":{"data_versao":"2024-09-29","id_parada":"2016O00024C0","nome_parada":"Russel"},"geometry":{"type":"Point","coordinates":[-43.172737,-22.924585]}},{"type":"Feature","properties":{"data_versao":"2024-09-29","id_parada":"2015O00026C0","nome_parada":"Russel"},"geometry":{"type":"Point","coordinates":[-43.17256,-22.925018]}},{"type":"Feature","properties":{"data_versao":"2024-09-29","id_parada":"3156O00012C0","nome_parada":"Régio"},"geometry":{"type":"Point","coordinates":[-43.268463,-22.863408]}},{"type":"Feature","properties":{"data_versao":"2024-09-29","id_parada":"5141O00084C9","nome_parada":"Sabiá"},"geometry":{"type":"Point","coordinates":[-43.465028,-22.864136]}},{"type":"Feature","properties":{"data_versao":"2024-09-29","id_parada":"5141O00136C0","nome_parada":"Sabogi"},"geometry":{"type":"Point","coordinates":[-43.46366,-22.87446]}},{"type":"Feature","properties":{"data_versao":"2024-09-29","id_parada":"5141O00127C0","nome_parada":"Sainá"},"geometry":{"type":"Point","coordinates":[-43.465049,-22.870429]}},{"type":"Feature","properties":{"data_versao":"2024-09-29","id_parada":"5141O00266C9","nome_parada":"Sainá"},"geometry":{"type":"Point","coordinates":[-43.464886,-22.87057]}},{"type":"Feature","properties":{"data_versao":"2024-09-29","id_parada":"5141O00233C0","nome_parada":"Sainá"},"geometry":{"type":"Point","coordinates":[-43.469598,-22.870363]}},{"type":"Feature","properties":{"data_versao":"2024-09-29","id_parada":"5142O00013C9","nome_parada":"Saúna"},"geometry":{"type":"Point","coordinates":[-43.504893,-22.879291]}},{"type":"Feature","properties":{"data_versao":"2024-09-29","id_parada":"5142O00016C9","nome_parada":"Saúna"},"geometry":{"type":"Point","coordinates":[-43.50393,-22.87971]}},{"type":"Feature","properties":{"data_versao":"2024-09-29","id_parada":"1014O00213C0","nome_parada":"Senado"},"geometry":{"type":"Point","coordinates":[-43.19232,-22.91239]}},{"type":"Feature","properties":{"data_versao":"2024-09-29","id_parada":"1005O00248C0","nome_parada":"Senado"},"geometry":{"type":"Point","coordinates":[-43.188238,-22.91073]}},{"type":"Feature","properties":{"data_versao":"2024-09-29","id_parada":"3090O00012C0","nome_parada":"Sirici"},"geometry":{"type":"Point","coordinates":[-43.36457,-22.85786]}},{"type":"Feature","properties":{"data_versao":"2024-09-29","id_parada":"3090O00016C0","nome_parada":"Sirici"},"geometry":{"type":"Point","coordinates":[-43.369537,-22.861115]}},{"type":"Feature","properties":{"data_versao":"2024-09-29","id_parada":"3083O00041C0","nome_parada":"Soares"},"geometry":{"type":"Point","coordinates":[-43.343069,-22.87367]}},{"type":"Feature","properties":{"data_versao":"2024-09-29","id_parada":"q4lp","nome_parada":"Surumu"},"geometry":{"type":"Point","coordinates":[-43.634622,-22.99898]}},{"type":"Feature","properties":{"data_versao":"2024-09-29","id_parada":"3045O00038C9","nome_parada":"Suruí"},"geometry":{"type":"Point","coordinates":[-43.30249,-22.83361]}},{"type":"Feature","properties":{"data_versao":"2024-09-29","id_parada":"3076O00080C9","nome_parada":"Tanabi"},"geometry":{"type":"Point","coordinates":[-43.3209,-22.84577]}},{"type":"Feature","properties":{"data_versao":"2024-09-29","id_parada":"4123BC0001E0","nome_parada":"Tanque"},"geometry":{"type":"Point","coordinates":[-43.36137,-22.91558]}},{"type":"Feature","properties":{"data_versao":"2024-09-29","id_parada":"3044O00061C0","nome_parada":"Tapevi"},"geometry":{"type":"Point","coordinates":[-43.29537,-22.83807]}},{"type":"Feature","properties":{"data_versao":"2024-09-29","id_parada":"3107O00038C0","nome_parada":"Tapuia"},"geometry":{"type":"Point","coordinates":[-43.39836,-22.829121]}},{"type":"Feature","properties":{"data_versao":"2024-09-29","id_parada":"3107O00025C0","nome_parada":"Tapuia"},"geometry":{"type":"Point","coordinates":[-43.398747,-22.828985]}},{"type":"Feature","properties":{"data_versao":"2024-09-29","id_parada":"3074O00029C2","nome_parada":"Tejupa"},"geometry":{"type":"Point","coordinates":[-43.31536,-22.84097]}},{"type":"Feature","properties":{"data_versao":"2024-09-29","id_parada":"3084O00016C1","nome_parada":"Terço"},"geometry":{"type":"Point","coordinates":[-43.329369,-22.855453]}},{"type":"Feature","properties":{"data_versao":"2024-09-29","id_parada":"5141O00036C9","nome_parada":"Tibagi"},"geometry":{"type":"Point","coordinates":[-43.477424,-22.880517]}},{"type":"Feature","properties":{"data_versao":"2024-09-29","id_parada":"5141O00048C9","nome_parada":"Tibagi"},"geometry":{"type":"Point","coordinates":[-43.47819,-22.88632]}},{"type":"Feature","properties":{"data_versao":"2024-09-29","id_parada":"d2yg","nome_parada":"Tiboim"},"geometry":{"type":"Point","coordinates":[-43.280782,-22.824619]}},{"type":"Feature","properties":{"data_versao":"2024-09-29","id_parada":"xkag","nome_parada":"Tiboim"},"geometry":{"type":"Point","coordinates":[-43.281,-22.82467]}},{"type":"Feature","properties":{"data_versao":"2024-09-29","id_parada":"3069O00066C0","nome_parada":"Tijolo"},"geometry":{"type":"Point","coordinates":[-43.313028,-22.904135]}},{"type":"Feature","properties":{"data_versao":"2024-09-29","id_parada":"3156O00002C1","nome_parada":"Timbó"},"geometry":{"type":"Point","coordinates":[-43.26885,-22.86812]}},{"type":"Feature","properties":{"data_versao":"2024-09-29","id_parada":"3054O00051C0","nome_parada":"Timbó"},"geometry":{"type":"Point","coordinates":[-43.268968,-22.868229]}},{"type":"Feature","properties":{"data_versao":"2024-09-29","id_parada":"3086O00069C0","nome_parada":"Toriba"},"geometry":{"type":"Point","coordinates":[-43.338401,-22.845664]}},{"type":"Feature","properties":{"data_versao":"2024-09-29","id_parada":"5140O00055C0","nome_parada":"Toulon"},"geometry":{"type":"Point","coordinates":[-43.453149,-22.874952]}},{"type":"Feature","properties":{"data_versao":"2024-09-29","id_parada":"3106O00020C0","nome_parada":"Tucano"},"geometry":{"type":"Point","coordinates":[-43.380266,-22.836933]}},{"type":"Feature","properties":{"data_versao":"2024-09-29","id_parada":"2022O00002C0","nome_parada":"UNIRIO"},"geometry":{"type":"Point","coordinates":[-43.168539,-22.954248]}},{"type":"Feature","properties":{"data_versao":"2024-09-29","id_parada":"5142O00048C0","nome_parada":"Ubatã"},"geometry":{"type":"Point","coordinates":[-43.48719,-22.87441]}},{"type":"Feature","properties":{"data_versao":"2024-09-29","id_parada":"3040O00009C0","nome_parada":"Uranos"},"geometry":{"type":"Point","coordinates":[-43.25679,-22.86682]}},{"type":"Feature","properties":{"data_versao":"2024-09-29","id_parada":"3042O00033C9","nome_parada":"Uranos"},"geometry":{"type":"Point","coordinates":[-43.26715,-22.84891]}},{"type":"Feature","properties":{"data_versao":"2024-09-29","id_parada":"4115O00087C1","nome_parada":"Urubus"},"geometry":{"type":"Point","coordinates":[-43.28262,-22.92293]}},{"type":"Feature","properties":{"data_versao":"2024-09-29","id_parada":"4115O00160C2","nome_parada":"Urubus"},"geometry":{"type":"Point","coordinates":[-43.282343,-22.92269]}},{"type":"Feature","properties":{"data_versao":"2024-09-29","id_parada":"5141O00049C9","nome_parada":"Urucum"},"geometry":{"type":"Point","coordinates":[-43.476552,-22.886275]}},{"type":"Feature","properties":{"data_versao":"2024-09-29","id_parada":"5144O00202C9","nome_parada":"Vaivem"},"geometry":{"type":"Point","coordinates":[-43.514616,-22.92438]}},{"type":"Feature","properties":{"data_versao":"2024-09-29","id_parada":"5151O00284C9","nome_parada":"Yasmim"},"geometry":{"type":"Point","coordinates":[-43.632277,-22.971205]}},{"type":"Feature","properties":{"data_versao":"2024-09-29","id_parada":"5141O00103C9","nome_parada":"Zagreb"},"geometry":{"type":"Point","coordinates":[-43.467032,-22.864234]}},{"type":"Feature","properties":{"data_versao":"2024-09-29","id_parada":"4118O00003C0","nome_parada":"Zereda"},"geometry":{"type":"Point","coordinates":[-43.358218,-22.952055]}},{"type":"Feature","properties":{"data_versao":"2024-09-29","id_parada":"1014O00004C0","nome_parada":"Áurea"},"geometry":{"type":"Point","coordinates":[-43.18968,-22.92057]}},{"type":"Feature","properties":{"data_versao":"2024-09-29","id_parada":"3061O00013C0","nome_parada":"Abatira"},"geometry":{"type":"Point","coordinates":[-43.26539,-22.91324]}},{"type":"Feature","properties":{"data_versao":"2024-09-29","id_parada":"5141O00264C9","nome_parada":"Acesita"},"geometry":{"type":"Point","coordinates":[-43.478288,-22.879971]}},{"type":"Feature","properties":{"data_versao":"2024-09-29","id_parada":"3064O00013C0","nome_parada":"Adriano"},"geometry":{"type":"Point","coordinates":[-43.287656,-22.896912]}},{"type":"Feature","properties":{"data_versao":"2024-09-29","id_parada":"3064O00010C0","nome_parada":"Adriano"},"geometry":{"type":"Point","coordinates":[-43.287882,-22.896758]}},{"type":"Feature","properties":{"data_versao":"2024-09-29","id_parada":"3064O00011C0","nome_parada":"Adriano"},"geometry":{"type":"Point","coordinates":[-43.28899,-22.89832]}},{"type":"Feature","properties":{"data_versao":"2024-09-29","id_parada":"3044O00028C9","nome_parada":"Aimbere"},"geometry":{"type":"Point","coordinates":[-43.29983,-22.84017]}},{"type":"Feature","properties":{"data_versao":"2024-09-29","id_parada":"3043L00106C0","nome_parada":"Aimoré"},"geometry":{"type":"Point","coordinates":[-43.28129,-22.840567]}},{"type":"Feature","properties":{"data_versao":"2024-09-29","id_parada":"3054O00015C0","nome_parada":"Aitinga"},"geometry":{"type":"Point","coordinates":[-43.28125,-22.87191]}},{"type":"Feature","properties":{"data_versao":"2024-09-29","id_parada":"5144O00524C9","nome_parada":"Ajurana"},"geometry":{"type":"Point","coordinates":[-43.56122,-22.886263]}},{"type":"Feature","properties":{"data_versao":"2024-09-29","id_parada":"5144O00523C9","nome_parada":"Ajurana"},"geometry":{"type":"Point","coordinates":[-43.56055,-22.887414]}},{"type":"Feature","properties":{"data_versao":"2024-09-29","id_parada":"675m","nome_parada":"Alegria"},"geometry":{"type":"Point","coordinates":[-43.673643,-22.915564]}},{"type":"Feature","properties":{"data_versao":"2024-09-29","id_parada":"3063O00010C0","nome_parada":"Amaragi"},"geometry":{"type":"Point","coordinates":[-43.28857,-22.90464]}},{"type":"Feature","properties":{"data_versao":"2024-09-29","id_parada":"3079O00002C2","nome_parada":"Amália"},"geometry":{"type":"Point","coordinates":[-43.31751,-22.88445]}},{"type":"Feature","properties":{"data_versao":"2024-09-29","id_parada":"3079O00016C0","nome_parada":"Amália"},"geometry":{"type":"Point","coordinates":[-43.314056,-22.879618]}},{"type":"Feature","properties":{"data_versao":"2024-09-29","id_parada":"3084O00002C2","nome_parada":"Anajás"},"geometry":{"type":"Point","coordinates":[-43.329132,-22.855353]}},{"type":"Feature","properties":{"data_versao":"2024-09-29","id_parada":"3045O00007C9","nome_parada":"Angicos"},"geometry":{"type":"Point","coordinates":[-43.29564,-22.82684]}},{"type":"Feature","properties":{"data_versao":"2024-09-29","id_parada":"3076O00107C1","nome_parada":"Anhembi"},"geometry":{"type":"Point","coordinates":[-43.325098,-22.837192]}},{"type":"Feature","properties":{"data_versao":"2024-09-29","id_parada":"5148O00095C0","nome_parada":"Antares"},"geometry":{"type":"Point","coordinates":[-43.647884,-22.92267]}},{"type":"Feature","properties":{"data_versao":"2024-09-29","id_parada":"5149O00025C9","nome_parada":"Antares"},"geometry":{"type":"Point","coordinates":[-43.6791,-22.92456]}},{"type":"Feature","properties":{"data_versao":"2024-09-29","id_parada":"5149O00014C9","nome_parada":"Antares"},"geometry":{"type":"Point","coordinates":[-43.679226,-22.925139]}},{"type":"Feature","properties":{"data_versao":"2024-09-29","id_parada":"3055O00009C0","nome_parada":"Apinage"},"geometry":{"type":"Point","coordinates":[-43.2921,-22.86536]}},{"type":"Feature","properties":{"data_versao":"2024-09-29","id_parada":"5149O00087C0","nome_parada":"Aporuna"},"geometry":{"type":"Point","coordinates":[-43.65183,-22.94964]}},{"type":"Feature","properties":{"data_versao":"2024-09-29","id_parada":"5149O00243C9","nome_parada":"Aporuna"},"geometry":{"type":"Point","coordinates":[-43.64011,-22.9462]}},{"type":"Feature","properties":{"data_versao":"2024-09-29","id_parada":"5149O00244C9","nome_parada":"Aporuna"},"geometry":{"type":"Point","coordinates":[-43.63991,-22.94611]}},{"type":"Feature","properties":{"data_versao":"2024-09-29","id_parada":"1002O00010C0","nome_parada":"AquaRio"},"geometry":{"type":"Point","coordinates":[-43.1926,-22.89331]}},{"type":"Feature","properties":{"data_versao":"2024-09-29","id_parada":"3086O00055C9","nome_parada":"Arabori"},"geometry":{"type":"Point","coordinates":[-43.349623,-22.847239]}},{"type":"Feature","properties":{"data_versao":"2024-09-29","id_parada":"3107O00041C0","nome_parada":"Aramari"},"geometry":{"type":"Point","coordinates":[-43.39197,-22.82526]}},{"type":"Feature","properties":{"data_versao":"2024-09-29","id_parada":"3107O00067C0","nome_parada":"Aramari"},"geometry":{"type":"Point","coordinates":[-43.391839,-22.825339]}},{"type":"Feature","properties":{"data_versao":"2024-09-29","id_parada":"5141O00208C9","nome_parada":"Araquem"},"geometry":{"type":"Point","coordinates":[-43.460317,-22.862039]}},{"type":"Feature","properties":{"data_versao":"2024-09-29","id_parada":"5141O00025C0","nome_parada":"Araquem"},"geometry":{"type":"Point","coordinates":[-43.46113,-22.859405]}},{"type":"Feature","properties":{"data_versao":"2024-09-29","id_parada":"3079O00008C9","nome_parada":"Araruna"},"geometry":{"type":"Point","coordinates":[-43.322201,-22.886642]}},{"type":"Feature","properties":{"data_versao":"2024-09-29","id_parada":"5150O00058C9","nome_parada":"Arealva"},"geometry":{"type":"Point","coordinates":[-43.689296,-22.970338]}},{"type":"Feature","properties":{"data_versao":"2024-09-29","id_parada":"4122O00287C0","nome_parada":"Ariapó"},"geometry":{"type":"Point","coordinates":[-43.374487,-22.920809]}},{"type":"Feature","properties":{"data_versao":"2024-09-29","id_parada":"5144O00080C0","nome_parada":"Aricuri"},"geometry":{"type":"Point","coordinates":[-43.564317,-22.891382]}},{"type":"Feature","properties":{"data_versao":"2024-09-29","id_parada":"4119O00050C0","nome_parada":"Aristeu"},"geometry":{"type":"Point","coordinates":[-43.382929,-22.953931]}},